[{"longitude_deg":"6.037778","iata_code":null,"country_id":302687,"elevation_ft":null,"local_code":"LF3829","continent":"EU","home_link":null,"ident":"FR-0483","iso_country":"FR","wikipedia_link":null,"id":347602,"iso_region":"FR-U-A","keywords":null,"typeA":"closed","municipality":null,"code":null,"name":"Villard Notre Dame","scheduled_service":"no","other_name":null,"latitude_dege":"45.018056","gps_code":null,"is_available":false},{"longitude_deg":"6.701518","iata_code":null,"country_id":302687,"elevation_ft":null,"local_code":null,"continent":"EU","home_link":null,"ident":"FR-0379","iso_country":"FR","wikipedia_link":null,"id":330629,"iso_region":"FR-PAC","keywords":null,"typeA":"heliport","municipality":null,"code":null,"name":"Vars Helistrip","scheduled_service":"no","other_name":null,"latitude_dege":"44.548963","gps_code":null,"is_available":false},{"longitude_deg":"1.229357","iata_code":null,"country_id":302687,"elevation_ft":null,"local_code":null,"continent":"EU","home_link":null,"ident":"FR-0371","iso_country":"FR","wikipedia_link":null,"id":326702,"iso_region":"FR-OCC","keywords":null,"typeA":"small_airport","municipality":null,"code":null,"name":"Fromissard ULM","scheduled_service":"no","other_name":null,"latitude_dege":"44.003856","gps_code":null,"is_available":false},{"longitude_deg":"3.194275","iata_code":null,"country_id":302687,"elevation_ft":"607","local_code":"LF8926","continent":"EU","home_link":null,"ident":"FR-0382","iso_country":"FR","wikipedia_link":null,"id":330786,"iso_region":"FR-BFC","keywords":null,"typeA":"closed","municipality":null,"code":null,"name":"Base ULM du Petit Fay","scheduled_service":"no","other_name":null,"latitude_dege":"48.247629","gps_code":null,"is_available":false},{"longitude_deg":"6.460228","iata_code":null,"country_id":302687,"elevation_ft":null,"local_code":null,"continent":"EU","home_link":null,"ident":"FR-0372","iso_country":"FR","wikipedia_link":null,"id":328585,"iso_region":"FR-PAC","keywords":null,"typeA":"heliport","municipality":null,"code":null,"name":"Ile du Levant Helicopter Base","scheduled_service":"no","other_name":null,"latitude_dege":"43.021514","gps_code":null,"is_available":false},{"longitude_deg":"7.34499979019165","iata_code":null,"country_id":302687,"elevation_ft":"1081","local_code":null,"continent":"EU","home_link":null,"ident":"FR-0001","iso_country":"FR","wikipedia_link":null,"id":43341,"iso_region":"FR-GES","keywords":null,"typeA":"heliport","municipality":"Mulhouse","code":null,"name":"Centre Hospitalier De Moenchsberg Heliport","scheduled_service":"no","other_name":null,"latitude_dege":"47.725276947021484","gps_code":null,"is_available":false},{"longitude_deg":"7.704999923706055","iata_code":null,"country_id":302687,"elevation_ft":"487","local_code":null,"continent":"EU","home_link":null,"ident":"FR-0002","iso_country":"FR","wikipedia_link":null,"id":43342,"iso_region":"FR-GES","keywords":null,"typeA":"heliport","municipality":"Strasbourg","code":null,"name":"Centre Hospitalier Hautepierre Heliport","scheduled_service":"no","other_name":null,"latitude_dege":"48.59333419799805","gps_code":null,"is_available":false},{"longitude_deg":"7.776944160461426","iata_code":null,"country_id":302687,"elevation_ft":"530","local_code":null,"continent":"EU","home_link":null,"ident":"FR-0003","iso_country":"FR","wikipedia_link":null,"id":43343,"iso_region":"FR-GES","keywords":null,"typeA":"heliport","municipality":"Haguenau","code":null,"name":"Centre Hospitalier Heliport","scheduled_service":"no","other_name":null,"latitude_dege":"48.79777908325195","gps_code":null,"is_available":false},{"longitude_deg":"7.48638916015625","iata_code":null,"country_id":302687,"elevation_ft":"659","local_code":null,"continent":"EU","home_link":null,"ident":"FR-0004","iso_country":"FR","wikipedia_link":null,"id":43344,"iso_region":"FR-GES","keywords":null,"typeA":"heliport","municipality":"Ingwiller","code":null,"name":"Centre Hospitalier Heliport","scheduled_service":"no","other_name":null,"latitude_dege":"48.872501373291016","gps_code":null,"is_available":false},{"longitude_deg":"7.351110935211182","iata_code":null,"country_id":302687,"elevation_ft":"672","local_code":null,"continent":"EU","home_link":null,"ident":"FR-0005","iso_country":"FR","wikipedia_link":null,"id":43345,"iso_region":"FR-GES","keywords":null,"typeA":"heliport","municipality":"Saverne","code":null,"name":"Centre Hospitalier Sainte Catherine Heliport","scheduled_service":"no","other_name":null,"latitude_dege":"48.74555587768555","gps_code":null,"is_available":false},{"longitude_deg":"7.721718788146973","iata_code":null,"country_id":302687,"elevation_ft":"515","local_code":null,"continent":"EU","home_link":null,"ident":"FR-0006","iso_country":"FR","wikipedia_link":null,"id":43346,"iso_region":"FR-GES","keywords":null,"typeA":"heliport","municipality":"Illkirch-Graffenstaden","code":null,"name":"Graffenstaden Centre Hospitalier Heliport","scheduled_service":"no","other_name":null,"latitude_dege":"48.53724670410156","gps_code":null,"is_available":false},{"longitude_deg":"7.3380560874938965","iata_code":null,"country_id":302687,"elevation_ft":"660","local_code":null,"continent":"EU","home_link":null,"ident":"FR-0007","iso_country":"FR","wikipedia_link":null,"id":43347,"iso_region":"FR-GES","keywords":null,"typeA":"heliport","municipality":"Colmar","code":null,"name":"Hôpital Pasteur Heliport","scheduled_service":"no","other_name":null,"latitude_dege":"48.07500076293945","gps_code":null,"is_available":false},{"longitude_deg":"7.740555763244629","iata_code":null,"country_id":302687,"elevation_ft":"540","local_code":null,"continent":"EU","home_link":null,"ident":"FR-0008","iso_country":"FR","wikipedia_link":null,"id":43348,"iso_region":"FR-GES","keywords":null,"typeA":"heliport","municipality":"Strasbourg","code":null,"name":"N.H.C Heliport","scheduled_service":"no","other_name":null,"latitude_dege":"48.57583236694336","gps_code":null,"is_available":false},{"longitude_deg":"3.927773","iata_code":null,"country_id":302687,"elevation_ft":"3760","local_code":"LF0723","continent":"EU","home_link":null,"ident":"FR-0009","iso_country":"FR","wikipedia_link":null,"id":350567,"iso_region":"FR-ARA","keywords":null,"typeA":"small_airport","municipality":"Saint-Laurent-les-Bains","code":null,"name":"Altisurface Notre-Dame-des-Neiges-Abbaye","scheduled_service":"no","other_name":null,"latitude_dege":"44.601293","gps_code":null,"is_available":false},{"longitude_deg":"-1.1569440364837646","iata_code":null,"country_id":302687,"elevation_ft":"184","local_code":null,"continent":"EU","home_link":null,"ident":"FR-0010","iso_country":"FR","wikipedia_link":null,"id":43350,"iso_region":"FR-NAQ","keywords":null,"typeA":"heliport","municipality":"Dax","code":null,"name":"Castets Heliport","scheduled_service":"no","other_name":null,"latitude_dege":"43.91666793823242","gps_code":null,"is_available":false},{"longitude_deg":"-1.4777779579162598","iata_code":null,"country_id":302687,"elevation_ft":"75","local_code":null,"continent":"EU","home_link":null,"ident":"FR-0011","iso_country":"FR","wikipedia_link":null,"id":43351,"iso_region":"FR-NAQ","keywords":null,"typeA":"heliport","municipality":"Bayonne","code":null,"name":"Centre Hospitalier De La Côte Basque Heliport","scheduled_service":"no","other_name":null,"latitude_dege":"43.483055114746094","gps_code":null,"is_available":false},{"longitude_deg":"-1.1627780199050903","iata_code":null,"country_id":302687,"elevation_ft":"20","local_code":null,"continent":"EU","home_link":null,"ident":"FR-0012","iso_country":"FR","wikipedia_link":null,"id":43352,"iso_region":"FR-NAQ","keywords":null,"typeA":"heliport","municipality":"La Teste De Buch","code":null,"name":"Centre Hospitalier Heliport","scheduled_service":"no","other_name":null,"latitude_dege":"44.63138961791992","gps_code":null,"is_available":false},{"longitude_deg":"-1.0402779579162598","iata_code":null,"country_id":302687,"elevation_ft":"31","local_code":null,"continent":"EU","home_link":null,"ident":"FR-0013","iso_country":"FR","wikipedia_link":null,"id":43353,"iso_region":"FR-NAQ","keywords":null,"typeA":"heliport","municipality":"Dax","code":null,"name":"Centre Hospitalier Heliport","scheduled_service":"no","other_name":null,"latitude_dege":"43.712501525878906","gps_code":null,"is_available":false},{"longitude_deg":"-0.48611098527908325","iata_code":null,"country_id":302687,"elevation_ft":"197","local_code":null,"continent":"EU","home_link":null,"ident":"FR-0014","iso_country":"FR","wikipedia_link":null,"id":43354,"iso_region":"FR-NAQ","keywords":null,"typeA":"heliport","municipality":"Mont De Marsan","code":null,"name":"Centre Hospitalier Heliport","scheduled_service":"no","other_name":null,"latitude_dege":"43.893333435058594","gps_code":null,"is_available":false},{"longitude_deg":"0.7315620183944702","iata_code":null,"country_id":302687,"elevation_ft":"502","local_code":null,"continent":"EU","home_link":null,"ident":"FR-0015","iso_country":"FR","wikipedia_link":null,"id":43355,"iso_region":"FR-NAQ","keywords":null,"typeA":"heliport","municipality":"Perigueux","code":null,"name":"Centre Hospitalier Heliport","scheduled_service":"no","other_name":null,"latitude_dege":"45.19175338745117","gps_code":null,"is_available":false},{"longitude_deg":"-0.3298969864845276","iata_code":null,"country_id":302687,"elevation_ft":"709","local_code":null,"continent":"EU","home_link":null,"ident":"FR-0016","iso_country":"FR","wikipedia_link":null,"id":43356,"iso_region":"FR-NAQ","keywords":null,"typeA":"heliport","municipality":"Pau","code":null,"name":"Centre Hospitalier Heliport","scheduled_service":"no","other_name":null,"latitude_dege":"43.32706069946289","gps_code":null,"is_available":false},{"longitude_deg":"-0.6160079836845398","iata_code":null,"country_id":302687,"elevation_ft":"758","local_code":null,"continent":"EU","home_link":null,"ident":"FR-0017","iso_country":"FR","wikipedia_link":null,"id":43357,"iso_region":"FR-NAQ","keywords":null,"typeA":"heliport","municipality":"Oloron Sainte Marie","code":null,"name":"Centre Hospitalier Heliport","scheduled_service":"no","other_name":null,"latitude_dege":"43.19633865356445","gps_code":null,"is_available":false},{"longitude_deg":"-0.6595829725265503","iata_code":null,"country_id":302687,"elevation_ft":"81","local_code":null,"continent":"EU","home_link":null,"ident":"FR-0018","iso_country":"FR","wikipedia_link":null,"id":43358,"iso_region":"FR-NAQ","keywords":null,"typeA":"heliport","municipality":"Blaye","code":null,"name":"Centre Hospitalier Saint Nicolas De Blay Heliport","scheduled_service":"no","other_name":null,"latitude_dege":"45.135780334472656","gps_code":null,"is_available":false},{"longitude_deg":"-0.9378859996795654","iata_code":null,"country_id":302687,"elevation_ft":"30","local_code":null,"continent":"EU","home_link":null,"ident":"FR-0019","iso_country":"FR","wikipedia_link":null,"id":43359,"iso_region":"FR-NAQ","keywords":null,"typeA":"heliport","municipality":"Lesparre","code":null,"name":"Clinique Du Medoc Heliport","scheduled_service":"no","other_name":null,"latitude_dege":"45.30278778076172","gps_code":null,"is_available":false},{"longitude_deg":"-0.742491","iata_code":null,"country_id":302687,"elevation_ft":"1076","local_code":"LF6428","continent":"EU","home_link":null,"ident":"FR-0020","iso_country":"FR","wikipedia_link":null,"id":43360,"iso_region":"FR-NAQ","keywords":null,"typeA":"small_airport","municipality":"Aramits","code":null,"name":"Escary Aramits","scheduled_service":"no","other_name":null,"latitude_dege":"43.121208","gps_code":null,"is_available":false},{"longitude_deg":"-1.103475","iata_code":null,"country_id":302687,"elevation_ft":"253","local_code":null,"continent":"EU","home_link":null,"ident":"FR-0021","iso_country":"FR","wikipedia_link":null,"id":43361,"iso_region":"FR-NAQ","keywords":null,"typeA":"closed","municipality":"Dax","code":null,"name":"Aérodrome de Herm","scheduled_service":"no","other_name":null,"latitude_dege":"43.821646","gps_code":null,"is_available":false},{"longitude_deg":"1.2231240272521973","iata_code":null,"country_id":302687,"elevation_ft":"656","local_code":null,"continent":"EU","home_link":null,"ident":"FR-0022","iso_country":"FR","wikipedia_link":null,"id":43362,"iso_region":"FR-NAQ","keywords":null,"typeA":"heliport","municipality":"Sarlat","code":null,"name":"La Canéda Centre Hospitalier Heliport","scheduled_service":"no","other_name":null,"latitude_dege":"44.90024948120117","gps_code":null,"is_available":false},{"longitude_deg":"-1.164721965789795","iata_code":null,"country_id":302687,"elevation_ft":"52","local_code":null,"continent":"EU","home_link":null,"ident":"FR-0023","iso_country":"FR","wikipedia_link":null,"id":43363,"iso_region":"FR-NAQ","keywords":null,"typeA":"heliport","municipality":"Lacanau","code":null,"name":"Le Huga Heliport","scheduled_service":"no","other_name":null,"latitude_dege":"45.00694274902344","gps_code":null,"is_available":false},{"longitude_deg":"-0.6044440269470215","iata_code":null,"country_id":302687,"elevation_ft":"344","local_code":null,"continent":"EU","home_link":null,"ident":"FR-0024","iso_country":"FR","wikipedia_link":null,"id":43364,"iso_region":"FR-NAQ","keywords":null,"typeA":"heliport","municipality":"Bordeaux","code":null,"name":"Pellegrin Centre Hospitalier Heliport","scheduled_service":"no","other_name":null,"latitude_dege":"44.82749938964844","gps_code":null,"is_available":false},{"longitude_deg":"-0.9194440245628357","iata_code":null,"country_id":302687,"elevation_ft":"53","local_code":null,"continent":"EU","home_link":null,"ident":"FR-0025","iso_country":"FR","wikipedia_link":null,"id":43365,"iso_region":"FR-NAQ","keywords":null,"typeA":"heliport","municipality":"Dax","code":null,"name":"Pontonx Heliport","scheduled_service":"no","other_name":null,"latitude_dege":"43.77777862548828","gps_code":null,"is_available":false},{"longitude_deg":"-0.6622499823570251","iata_code":null,"country_id":302687,"elevation_ft":"7","local_code":null,"continent":"EU","home_link":null,"ident":"FR-0026","iso_country":"FR","wikipedia_link":null,"id":43366,"iso_region":"FR-NAQ","keywords":null,"typeA":"heliport","municipality":"Margaux","code":null,"name":"Relais De Margaux Heliport","scheduled_service":"no","other_name":null,"latitude_dege":"45.052955627441406","gps_code":null,"is_available":false},{"longitude_deg":"-0.574167013168335","iata_code":null,"country_id":302687,"elevation_ft":"62","local_code":null,"continent":"EU","home_link":null,"ident":"FR-0027","iso_country":"FR","wikipedia_link":null,"id":43367,"iso_region":"FR-NAQ","keywords":null,"typeA":"heliport","municipality":"Bordeaux","code":null,"name":"Robert Piqué Hôpital Militaire Heliport","scheduled_service":"no","other_name":null,"latitude_dege":"44.79999923706055","gps_code":null,"is_available":false},{"longitude_deg":"-1.1777780055999756","iata_code":null,"country_id":302687,"elevation_ft":"151","local_code":null,"continent":"EU","home_link":null,"ident":"FR-0028","iso_country":"FR","wikipedia_link":null,"id":43368,"iso_region":"FR-NAQ","keywords":null,"typeA":"heliport","municipality":"Dax","code":null,"name":"Tinon Heliport","scheduled_service":"no","other_name":null,"latitude_dege":"43.733333587646484","gps_code":null,"is_available":false},{"longitude_deg":"3.3333330154418945","iata_code":null,"country_id":302687,"elevation_ft":"686","local_code":null,"continent":"EU","home_link":null,"ident":"FR-0029","iso_country":"FR","wikipedia_link":null,"id":43369,"iso_region":"FR-ARA","keywords":null,"typeA":"heliport","municipality":"Moulins","code":null,"name":"Centre Hospitalier Heliport","scheduled_service":"no","other_name":null,"latitude_dege":"46.56666564941406","gps_code":null,"is_available":false},{"longitude_deg":"3.0919439792633057","iata_code":null,"country_id":302687,"elevation_ft":"1366","local_code":null,"continent":"EU","home_link":null,"ident":"FR-0030","iso_country":"FR","wikipedia_link":null,"id":43370,"iso_region":"FR-ARA","keywords":null,"typeA":"heliport","municipality":"Clermont-Ferrand","code":null,"name":"Centre Hospitalier Heliport","scheduled_service":"no","other_name":null,"latitude_dege":"45.75694274902344","gps_code":null,"is_available":false},{"longitude_deg":"3.306389093399048","iata_code":null,"country_id":302687,"elevation_ft":"266","local_code":null,"continent":"EU","home_link":null,"ident":"FR-0031","iso_country":"FR","wikipedia_link":null,"id":43371,"iso_region":"FR-BFC","keywords":null,"typeA":"heliport","municipality":"Sens","code":null,"name":"Centre De Secours Principal Heliport","scheduled_service":"no","other_name":null,"latitude_dege":"48.19194412231445","gps_code":null,"is_available":false},{"longitude_deg":"4.900000095367432","iata_code":null,"country_id":302687,"elevation_ft":"1611","local_code":null,"continent":"EU","home_link":null,"ident":"FR-0032","iso_country":"FR","wikipedia_link":null,"id":43372,"iso_region":"FR-BFC","keywords":null,"typeA":"heliport","municipality":"Valduc","code":null,"name":"Centre d'Etude du C.E.A. Heliport","scheduled_service":"no","other_name":null,"latitude_dege":"47.58333206176758","gps_code":null,"is_available":false},{"longitude_deg":"4.066667079925537","iata_code":null,"country_id":302687,"elevation_ft":"407","local_code":null,"continent":"EU","home_link":null,"ident":"FR-0033","iso_country":"FR","wikipedia_link":null,"id":43373,"iso_region":"FR-BFC","keywords":null,"typeA":"heliport","municipality":"Troyes","code":null,"name":"Centre Hospitalier Heliport","scheduled_service":"no","other_name":null,"latitude_dege":"47.25","gps_code":null,"is_available":false},{"longitude_deg":"3.5577778816223145","iata_code":null,"country_id":302687,"elevation_ft":"528","local_code":null,"continent":"EU","home_link":null,"ident":"FR-0034","iso_country":"FR","wikipedia_link":null,"id":43374,"iso_region":"FR-BFC","keywords":null,"typeA":"heliport","municipality":"Auxerre","code":null,"name":"Centre Hospitalier Heliport","scheduled_service":"no","other_name":null,"latitude_dege":"47.804443359375","gps_code":null,"is_available":false},{"longitude_deg":"4.812222003936768","iata_code":null,"country_id":302687,"elevation_ft":"727","local_code":null,"continent":"EU","home_link":null,"ident":"FR-0035","iso_country":"FR","wikipedia_link":null,"id":43375,"iso_region":"FR-BFC","keywords":null,"typeA":"heliport","municipality":"Macon","code":null,"name":"Centre Hospitalier Heliport","scheduled_service":"no","other_name":null,"latitude_dege":"46.31444549560547","gps_code":null,"is_available":false},{"longitude_deg":"3.1222219467163086","iata_code":null,"country_id":302687,"elevation_ft":"736","local_code":null,"continent":"EU","home_link":null,"ident":"FR-0036","iso_country":"FR","wikipedia_link":null,"id":43376,"iso_region":"FR-BFC","keywords":null,"typeA":"heliport","municipality":"Nevers","code":null,"name":"Centre Hospitalier Heliport","scheduled_service":"no","other_name":null,"latitude_dege":"46.981388092041016","gps_code":null,"is_available":false},{"longitude_deg":"4.558055877685547","iata_code":null,"country_id":302687,"elevation_ft":"792","local_code":null,"continent":"EU","home_link":null,"ident":"FR-0037","iso_country":"FR","wikipedia_link":null,"id":43377,"iso_region":"FR-BFC","keywords":null,"typeA":"heliport","municipality":"Chatillon Sur Seine","code":null,"name":"Centre Hospitalier Heliport","scheduled_service":"no","other_name":null,"latitude_dege":"47.862220764160156","gps_code":null,"is_available":false},{"longitude_deg":"4.109722137451172","iata_code":null,"country_id":302687,"elevation_ft":"824","local_code":null,"continent":"EU","home_link":null,"ident":"FR-0038","iso_country":"FR","wikipedia_link":null,"id":43378,"iso_region":"FR-BFC","keywords":null,"typeA":"heliport","municipality":"Paray Le Monial","code":null,"name":"Centre Hospitalier Heliport","scheduled_service":"no","other_name":null,"latitude_dege":"46.46500015258789","gps_code":null,"is_available":false},{"longitude_deg":"4.3444437980651855","iata_code":null,"country_id":302687,"elevation_ft":"957","local_code":null,"continent":"EU","home_link":null,"ident":"FR-0039","iso_country":"FR","wikipedia_link":null,"id":43379,"iso_region":"FR-BFC","keywords":null,"typeA":"heliport","municipality":"Semur-En-Auxois","code":null,"name":"Centre Hospitalier Heliport","scheduled_service":"no","other_name":null,"latitude_dege":"47.49555587768555","gps_code":null,"is_available":false},{"longitude_deg":"4.448888778686523","iata_code":null,"country_id":302687,"elevation_ft":"1180","local_code":null,"continent":"EU","home_link":null,"ident":"FR-0040","iso_country":"FR","wikipedia_link":null,"id":43380,"iso_region":"FR-BFC","keywords":null,"typeA":"heliport","municipality":"Le Creusot","code":null,"name":"Centre Hospitalier Hotel Dieu Heliport","scheduled_service":"no","other_name":null,"latitude_dege":"46.80500030517578","gps_code":null,"is_available":false},{"longitude_deg":"4.333889007568359","iata_code":null,"country_id":302687,"elevation_ft":"957","local_code":null,"continent":"EU","home_link":null,"ident":"FR-0041","iso_country":"FR","wikipedia_link":null,"id":43381,"iso_region":"FR-BFC","keywords":null,"typeA":"heliport","municipality":"Montceau Les Mines","code":null,"name":"Centre Hospitalier J. Bouveri Heliport","scheduled_service":"no","other_name":null,"latitude_dege":"46.650001525878906","gps_code":null,"is_available":false},{"longitude_deg":"5.026944160461426","iata_code":null,"country_id":302687,"elevation_ft":"781","local_code":null,"continent":"EU","home_link":null,"ident":"FR-0042","iso_country":"FR","wikipedia_link":null,"id":43382,"iso_region":"FR-BFC","keywords":null,"typeA":"heliport","municipality":"Dijon","code":null,"name":"Centre Hospitalier Régional Heliport","scheduled_service":"no","other_name":null,"latitude_dege":"47.317222595214844","gps_code":null,"is_available":false},{"longitude_deg":"4.859167098999023","iata_code":null,"country_id":302687,"elevation_ft":"631","local_code":null,"continent":"EU","home_link":null,"ident":"FR-0043","iso_country":"FR","wikipedia_link":null,"id":43383,"iso_region":"FR-BFC","keywords":null,"typeA":"heliport","municipality":"Chalons-Sur-Saone","code":null,"name":"Centre Hospitalier W. Morey Heliport","scheduled_service":"no","other_name":null,"latitude_dege":"46.7783317565918","gps_code":null,"is_available":false},{"longitude_deg":"3.1541669368743896","iata_code":null,"country_id":302687,"elevation_ft":"751","local_code":null,"continent":"EU","home_link":null,"ident":"FR-0044","iso_country":"FR","wikipedia_link":null,"id":43384,"iso_region":"FR-BFC","keywords":null,"typeA":"heliport","municipality":"Magny Cours","code":null,"name":"Circuit Automobile de Nevers Magny-Cours Heliport","scheduled_service":"no","other_name":null,"latitude_dege":"46.856388092041016","gps_code":null,"is_available":false},{"longitude_deg":"3.386667013168335","iata_code":null,"country_id":302687,"elevation_ft":"254","local_code":null,"continent":"EU","home_link":null,"ident":"FR-0045","iso_country":"FR","wikipedia_link":null,"id":43385,"iso_region":"FR-BFC","keywords":null,"typeA":"heliport","municipality":"Joigny","code":null,"name":"Le Port Heliport","scheduled_service":"no","other_name":null,"latitude_dege":"47.981109619140625","gps_code":null,"is_available":false},{"longitude_deg":"-4.491666793823242","iata_code":null,"country_id":302687,"elevation_ft":"8","local_code":null,"continent":"EU","home_link":null,"ident":"FR-0046","iso_country":"FR","wikipedia_link":null,"id":43386,"iso_region":"FR-BRE","keywords":null,"typeA":"heliport","municipality":"Brest","code":null,"name":"Amirauté Heliport","scheduled_service":"no","other_name":null,"latitude_dege":"48.38055419921875","gps_code":null,"is_available":false},{"longitude_deg":"-3.378056049346924","iata_code":null,"country_id":302687,"elevation_ft":"79","local_code":null,"continent":"EU","home_link":null,"ident":"FR-0047","iso_country":"FR","wikipedia_link":null,"id":43387,"iso_region":"FR-BRE","keywords":null,"typeA":"heliport","municipality":"Lorient","code":null,"name":"Bretagne Sud Centre Hospitalier Heliport","scheduled_service":"no","other_name":null,"latitude_dege":"47.74972152709961","gps_code":null,"is_available":false},{"longitude_deg":"-2.0083329677581787","iata_code":null,"country_id":302687,"elevation_ft":"26","local_code":null,"continent":"EU","home_link":null,"ident":"FR-0048","iso_country":"FR","wikipedia_link":null,"id":43388,"iso_region":"FR-BRE","keywords":null,"typeA":"heliport","municipality":"Saint-Malo","code":null,"name":"Centre Hospitalier Heliport","scheduled_service":"no","other_name":null,"latitude_dege":"48.63888931274414","gps_code":null,"is_available":false},{"longitude_deg":"-3.465277910232544","iata_code":null,"country_id":302687,"elevation_ft":"92","local_code":null,"continent":"EU","home_link":null,"ident":"FR-0049","iso_country":"FR","wikipedia_link":null,"id":43389,"iso_region":"FR-BRE","keywords":null,"typeA":"heliport","municipality":"Lannion","code":null,"name":"Centre Hospitalier Heliport","scheduled_service":"no","other_name":null,"latitude_dege":"48.7227783203125","gps_code":null,"is_available":false},{"longitude_deg":"-2.7511110305786133","iata_code":null,"country_id":302687,"elevation_ft":"354","local_code":null,"continent":"EU","home_link":null,"ident":"FR-0050","iso_country":"FR","wikipedia_link":null,"id":43390,"iso_region":"FR-BRE","keywords":null,"typeA":"heliport","municipality":"Saint-Brieuc","code":null,"name":"Centre Hospitalier Heliport","scheduled_service":"no","other_name":null,"latitude_dege":"48.4908332824707","gps_code":null,"is_available":false},{"longitude_deg":"-2.7472219467163086","iata_code":null,"country_id":302687,"elevation_ft":"33","local_code":null,"continent":"EU","home_link":null,"ident":"FR-0051","iso_country":"FR","wikipedia_link":null,"id":43391,"iso_region":"FR-BRE","keywords":null,"typeA":"heliport","municipality":"Vannes","code":null,"name":"Chubert Centre Hospitalier Heliport","scheduled_service":"no","other_name":null,"latitude_dege":"47.66611099243164","gps_code":null,"is_available":false},{"longitude_deg":"-4.096109867095947","iata_code":null,"country_id":302687,"elevation_ft":"177","local_code":null,"continent":"EU","home_link":null,"ident":"FR-0052","iso_country":"FR","wikipedia_link":null,"id":43392,"iso_region":"FR-BRE","keywords":null,"typeA":"heliport","municipality":"Quimper","code":null,"name":"Cornouailles Heliport","scheduled_service":"no","other_name":null,"latitude_dege":"47.98527526855469","gps_code":null,"is_available":false},{"longitude_deg":"-4.529566764831543","iata_code":null,"country_id":302687,"elevation_ft":"121","local_code":null,"continent":"EU","home_link":null,"ident":"FR-0053","iso_country":"FR","wikipedia_link":null,"id":43393,"iso_region":"FR-BRE","keywords":null,"typeA":"heliport","municipality":"Brest","code":null,"name":"La Cavale Blanche Centre Hospitalier Heliport","scheduled_service":"no","other_name":null,"latitude_dege":"48.40353012084961","gps_code":null,"is_available":false},{"longitude_deg":"-3.8205559253692627","iata_code":null,"country_id":302687,"elevation_ft":"495","local_code":null,"continent":"EU","home_link":null,"ident":"FR-0054","iso_country":"FR","wikipedia_link":null,"id":43394,"iso_region":"FR-BRE","keywords":null,"typeA":"heliport","municipality":"Chateauneuf Du Faou","code":null,"name":"Mairie Heliport","scheduled_service":"no","other_name":null,"latitude_dege":"48.20277786254883","gps_code":null,"is_available":false},{"longitude_deg":"-1.6961109638214111","iata_code":null,"country_id":302687,"elevation_ft":"148","local_code":null,"continent":"EU","home_link":null,"ident":"FR-0055","iso_country":"FR","wikipedia_link":null,"id":43395,"iso_region":"FR-BRE","keywords":null,"typeA":"heliport","municipality":"Rennes","code":null,"name":"Pont Chaillou Heliport","scheduled_service":"no","other_name":null,"latitude_dege":"48.12305450439453","gps_code":null,"is_available":false},{"longitude_deg":"2.774444103240967","iata_code":null,"country_id":302687,"elevation_ft":"353","local_code":null,"continent":"EU","home_link":null,"ident":"FR-0056","iso_country":"FR","wikipedia_link":null,"id":43396,"iso_region":"FR-CVL","keywords":null,"typeA":"heliport","municipality":"Amilly","code":null,"name":"Centre Hospitalier de l'agglomeration Montargeoise Heliport","scheduled_service":"no","other_name":null,"latitude_dege":"47.996665954589844","gps_code":null,"is_available":false},{"longitude_deg":"1.731943964958191","iata_code":null,"country_id":302687,"elevation_ft":"293","local_code":null,"continent":"EU","home_link":null,"ident":"FR-0057","iso_country":"FR","wikipedia_link":null,"id":43397,"iso_region":"FR-CVL","keywords":null,"typeA":"heliport","municipality":"Romorantin","code":null,"name":"Centre Hospitalier Heliport","scheduled_service":"no","other_name":null,"latitude_dege":"47.360557556152344","gps_code":null,"is_available":false},{"longitude_deg":"1.3424999713897705","iata_code":null,"country_id":302687,"elevation_ft":"355","local_code":null,"continent":"EU","home_link":null,"ident":"FR-0058","iso_country":"FR","wikipedia_link":null,"id":43398,"iso_region":"FR-CVL","keywords":null,"typeA":"heliport","municipality":"Blois","code":null,"name":"Centre Hospitalier Heliport","scheduled_service":"no","other_name":null,"latitude_dege":"47.60472106933594","gps_code":null,"is_available":false},{"longitude_deg":"2.4352779388427734","iata_code":null,"country_id":302687,"elevation_ft":"445","local_code":null,"continent":"EU","home_link":null,"ident":"FR-0059","iso_country":"FR","wikipedia_link":null,"id":43399,"iso_region":"FR-CVL","keywords":null,"typeA":"heliport","municipality":"Bourges","code":null,"name":"Centre Hospitalier Heliport","scheduled_service":"no","other_name":null,"latitude_dege":"47.08416748046875","gps_code":null,"is_available":false},{"longitude_deg":"1.3847219944000244","iata_code":null,"country_id":302687,"elevation_ft":"451","local_code":null,"continent":"EU","home_link":null,"ident":"FR-0060","iso_country":"FR","wikipedia_link":null,"id":43400,"iso_region":"FR-CVL","keywords":null,"typeA":"heliport","municipality":"Dreux","code":null,"name":"Centre Hospitalier Heliport","scheduled_service":"no","other_name":null,"latitude_dege":"48.727500915527344","gps_code":null,"is_available":false},{"longitude_deg":"1.504721999168396","iata_code":null,"country_id":302687,"elevation_ft":"488","local_code":null,"continent":"EU","home_link":null,"ident":"FR-0061","iso_country":"FR","wikipedia_link":null,"id":43401,"iso_region":"FR-CVL","keywords":null,"typeA":"heliport","municipality":"Chartres","code":null,"name":"Centre Hospitalier Heliport","scheduled_service":"no","other_name":null,"latitude_dege":"48.41999816894531","gps_code":null,"is_available":false},{"longitude_deg":"1.6974999904632568","iata_code":null,"country_id":302687,"elevation_ft":"558","local_code":null,"continent":"EU","home_link":null,"ident":"FR-0062","iso_country":"FR","wikipedia_link":null,"id":43402,"iso_region":"FR-CVL","keywords":null,"typeA":"heliport","municipality":"Chateauroux","code":null,"name":"Centre Hospitalier Heliport","scheduled_service":"no","other_name":null,"latitude_dege":"46.799442291259766","gps_code":null,"is_available":false},{"longitude_deg":"1.918889045715332","iata_code":null,"country_id":302687,"elevation_ft":"355","local_code":null,"continent":"EU","home_link":null,"ident":"FR-0063","iso_country":"FR","wikipedia_link":null,"id":43403,"iso_region":"FR-CVL","keywords":null,"typeA":"heliport","municipality":"Orleans","code":null,"name":"La Source Heliport","scheduled_service":"no","other_name":null,"latitude_dege":"47.834999084472656","gps_code":null,"is_available":false},{"longitude_deg":"0.7091670036315918","iata_code":null,"country_id":302687,"elevation_ft":"274","local_code":null,"continent":"EU","home_link":null,"ident":"FR-0064","iso_country":"FR","wikipedia_link":null,"id":43404,"iso_region":"FR-CVL","keywords":null,"typeA":"heliport","municipality":"Tours","code":null,"name":"Trousseau Chu Heliport","scheduled_service":"no","other_name":null,"latitude_dege":"47.3488883972168","gps_code":null,"is_available":false},{"longitude_deg":"4.369443893432617","iata_code":null,"country_id":302687,"elevation_ft":"304","local_code":null,"continent":"EU","home_link":null,"ident":"FR-0065","iso_country":"FR","wikipedia_link":null,"id":43405,"iso_region":"FR-GES","keywords":null,"typeA":"heliport","municipality":"Chalons-En-Champagne","code":null,"name":"Centre Hospitalier Heliport","scheduled_service":"no","other_name":null,"latitude_dege":"48.9738883972168","gps_code":null,"is_available":false},{"longitude_deg":"4.6019439697265625","iata_code":null,"country_id":302687,"elevation_ft":"359","local_code":null,"continent":"EU","home_link":null,"ident":"FR-0066","iso_country":"FR","wikipedia_link":null,"id":43406,"iso_region":"FR-GES","keywords":null,"typeA":"heliport","municipality":"Vitry-Le-Francois","code":null,"name":"Centre Hospitalier Heliport","scheduled_service":"no","other_name":null,"latitude_dege":"48.71666717529297","gps_code":null,"is_available":false},{"longitude_deg":"4.949443817138672","iata_code":null,"country_id":302687,"elevation_ft":"460","local_code":null,"continent":"EU","home_link":null,"ident":"FR-0067","iso_country":"FR","wikipedia_link":null,"id":43407,"iso_region":"FR-GES","keywords":null,"typeA":"heliport","municipality":"Saint-Dizier","code":null,"name":"Centre Hospitalier Heliport","scheduled_service":"no","other_name":null,"latitude_dege":"48.63166809082031","gps_code":null,"is_available":false},{"longitude_deg":"4.697500228881836","iata_code":null,"country_id":302687,"elevation_ft":"579","local_code":null,"continent":"EU","home_link":null,"ident":"FR-0068","iso_country":"FR","wikipedia_link":null,"id":43408,"iso_region":"FR-GES","keywords":null,"typeA":"heliport","municipality":"Charleville Mezieres","code":null,"name":"Centre Hospitalier Heliport","scheduled_service":"no","other_name":null,"latitude_dege":"49.76250076293945","gps_code":null,"is_available":false},{"longitude_deg":"4.018610954284668","iata_code":null,"country_id":302687,"elevation_ft":"339","local_code":null,"continent":"EU","home_link":null,"ident":"FR-0069","iso_country":"FR","wikipedia_link":null,"id":43409,"iso_region":"FR-GES","keywords":null,"typeA":"heliport","municipality":"Reims","code":null,"name":"Centre Hospitalier Régional Heliport","scheduled_service":"no","other_name":null,"latitude_dege":"49.225833892822266","gps_code":null,"is_available":false},{"longitude_deg":"3.984999895095825","iata_code":null,"country_id":302687,"elevation_ft":"466","local_code":null,"continent":"EU","home_link":null,"ident":"FR-0070","iso_country":"FR","wikipedia_link":null,"id":43410,"iso_region":"FR-GES","keywords":null,"typeA":"heliport","municipality":"Chouilly","code":null,"name":"Centre Vinicole Heliport","scheduled_service":"no","other_name":null,"latitude_dege":"49.02333450317383","gps_code":null,"is_available":false},{"longitude_deg":"3.8333330154418945","iata_code":null,"country_id":302687,"elevation_ft":"341","local_code":null,"continent":"EU","home_link":null,"ident":"FR-0071","iso_country":"FR","wikipedia_link":null,"id":43411,"iso_region":"FR-GES","keywords":null,"typeA":"heliport","municipality":"Saint-Loup","code":null,"name":"Hôtel Florotel Heliport","scheduled_service":"no","other_name":null,"latitude_dege":"48.724998474121094","gps_code":null,"is_available":false},{"longitude_deg":"3.9069440364837646","iata_code":null,"country_id":302687,"elevation_ft":"328","local_code":null,"continent":"EU","home_link":null,"ident":"FR-0072","iso_country":"FR","wikipedia_link":null,"id":43412,"iso_region":"FR-GES","keywords":null,"typeA":"heliport","municipality":"Vinay","code":null,"name":"Hôtellerie La Briquetterie Heliport","scheduled_service":"no","other_name":null,"latitude_dege":"49.025001525878906","gps_code":null,"is_available":false},{"longitude_deg":"4.0112810134887695","iata_code":null,"country_id":302687,"elevation_ft":"253","local_code":null,"continent":"EU","home_link":null,"ident":"FR-0073","iso_country":"FR","wikipedia_link":null,"id":43413,"iso_region":"FR-GES","keywords":null,"typeA":"heliport","municipality":"Reims","code":null,"name":"Laboratoires Boehringer Heliport","scheduled_service":"no","other_name":null,"latitude_dege":"49.275245666503906","gps_code":null,"is_available":false},{"longitude_deg":"3.967221975326538","iata_code":null,"country_id":302687,"elevation_ft":"483","local_code":null,"continent":"EU","home_link":null,"ident":"FR-0074","iso_country":"FR","wikipedia_link":null,"id":43414,"iso_region":"FR-GES","keywords":null,"typeA":"heliport","municipality":"Coligny","code":null,"name":"Travaux Aeriens Bouquemont Heliport","scheduled_service":"no","other_name":null,"latitude_dege":"48.85166549682617","gps_code":null,"is_available":false},{"longitude_deg":"5.548288822174072","iata_code":null,"country_id":302687,"elevation_ft":"896","local_code":null,"continent":"EU","home_link":null,"ident":"FR-0075","iso_country":"FR","wikipedia_link":null,"id":43415,"iso_region":"FR-BFC","keywords":null,"typeA":"heliport","municipality":"Lons Le Saunier","code":null,"name":"Centre Hospitalier de Lons le Saunier Heliport","scheduled_service":"no","other_name":null,"latitude_dege":"46.677223205566406","gps_code":null,"is_available":false},{"longitude_deg":"5.472221851348877","iata_code":null,"country_id":302687,"elevation_ft":"870","local_code":null,"continent":"EU","home_link":null,"ident":"FR-0076","iso_country":"FR","wikipedia_link":null,"id":43416,"iso_region":"FR-BFC","keywords":null,"typeA":"heliport","municipality":"Dole","code":null,"name":"Centre Hospitalier Heliport","scheduled_service":"no","other_name":null,"latitude_dege":"47.08333206176758","gps_code":null,"is_available":false},{"longitude_deg":"6.359722137451172","iata_code":null,"country_id":302687,"elevation_ft":"2766","local_code":null,"continent":"EU","home_link":null,"ident":"FR-0077","iso_country":"FR","wikipedia_link":null,"id":43417,"iso_region":"FR-BFC","keywords":null,"typeA":"heliport","municipality":"Pontarlier","code":null,"name":"Centre Hospitalier Heliport","scheduled_service":"no","other_name":null,"latitude_dege":"46.90055465698242","gps_code":null,"is_available":false},{"longitude_deg":"5.96416711807251","iata_code":null,"country_id":302687,"elevation_ft":"934","local_code":null,"continent":"EU","home_link":null,"ident":"FR-0078","iso_country":"FR","wikipedia_link":null,"id":43418,"iso_region":"FR-BFC","keywords":null,"typeA":"heliport","municipality":"Besancon","code":null,"name":"Hôpital Jean Minjoz Heliport","scheduled_service":"no","other_name":null,"latitude_dege":"47.225833892822266","gps_code":null,"is_available":false},{"longitude_deg":"1.6749999523162842","iata_code":null,"country_id":302687,"elevation_ft":"92","local_code":null,"continent":"EU","home_link":null,"ident":"FR-0079","iso_country":"FR","wikipedia_link":null,"id":43419,"iso_region":"FR-IDF","keywords":null,"typeA":"heliport","municipality":"Mantes La Jolie","code":null,"name":"Centre Hospitalier F. Quesnay Heliport","scheduled_service":"no","other_name":null,"latitude_dege":"48.999168395996094","gps_code":null,"is_available":false},{"longitude_deg":"2.023252010345459","iata_code":null,"country_id":302687,"elevation_ft":"233","local_code":null,"continent":"EU","home_link":null,"ident":"FR-0080","iso_country":"FR","wikipedia_link":null,"id":43420,"iso_region":"FR-IDF","keywords":null,"typeA":"heliport","municipality":"Poissy","code":null,"name":"Centre Hospitalier Heliport","scheduled_service":"no","other_name":null,"latitude_dege":"48.9177131652832","gps_code":null,"is_available":false},{"longitude_deg":"2.4811110496520996","iata_code":null,"country_id":302687,"elevation_ft":"255","local_code":null,"continent":"EU","home_link":null,"ident":"FR-0081","iso_country":"FR","wikipedia_link":null,"id":43421,"iso_region":"FR-IDF","keywords":null,"typeA":"heliport","municipality":"Corbeil","code":null,"name":"Centre Hospitalier Heliport","scheduled_service":"no","other_name":null,"latitude_dege":"48.59555435180664","gps_code":null,"is_available":false},{"longitude_deg":"2.453610897064209","iata_code":null,"country_id":302687,"elevation_ft":"160","local_code":null,"continent":"EU","home_link":null,"ident":"FR-0082","iso_country":"FR","wikipedia_link":null,"id":43422,"iso_region":"FR-IDF","keywords":null,"typeA":"heliport","municipality":"Creteil","code":null,"name":"Centre Hospitalier Henri Mondor Heliport","scheduled_service":"no","other_name":null,"latitude_dege":"48.79888916015625","gps_code":null,"is_available":false},{"longitude_deg":"2.520833","iata_code":null,"country_id":302687,"elevation_ft":"190","local_code":null,"continent":"EU","home_link":null,"ident":"FR-0083","iso_country":"FR","wikipedia_link":null,"id":43423,"iso_region":"FR-IDF","keywords":null,"typeA":"heliport","municipality":"Aulnay Sous Bois","code":null,"name":"Centre Hospitalier Intercommunal Robert Ballanger Heliport","scheduled_service":"no","other_name":null,"latitude_dege":"48.955555","gps_code":null,"is_available":false},{"longitude_deg":"2.361388921737671","iata_code":null,"country_id":302687,"elevation_ft":"255","local_code":null,"continent":"EU","home_link":null,"ident":"FR-0084","iso_country":"FR","wikipedia_link":null,"id":43424,"iso_region":"FR-IDF","keywords":null,"typeA":"heliport","municipality":"Paris","code":null,"name":"Centre Hospitalier La Pitié Salpétrière Heliport","scheduled_service":"no","other_name":null,"latitude_dege":"48.837223052978516","gps_code":null,"is_available":false},{"longitude_deg":"2.3544440269470215","iata_code":null,"country_id":302687,"elevation_ft":"262","local_code":null,"continent":"EU","home_link":null,"ident":"FR-0085","iso_country":"FR","wikipedia_link":null,"id":43425,"iso_region":"FR-IDF","keywords":null,"typeA":"heliport","municipality":"Paris","code":null,"name":"Centre Hospitalier Lariboisière Heliport","scheduled_service":"no","other_name":null,"latitude_dege":"48.88277816772461","gps_code":null,"is_available":false},{"longitude_deg":"2.096982002258301","iata_code":null,"country_id":302687,"elevation_ft":"266","local_code":null,"continent":"EU","home_link":null,"ident":"FR-0086","iso_country":"FR","wikipedia_link":null,"id":43426,"iso_region":"FR-IDF","keywords":null,"typeA":"heliport","municipality":"Pontoise","code":null,"name":"Centre Hospitalier René Dubos Heliport","scheduled_service":"no","other_name":null,"latitude_dege":"49.066871643066406","gps_code":null,"is_available":false},{"longitude_deg":"1.8638889789581299","iata_code":null,"country_id":302687,"elevation_ft":"82","local_code":null,"continent":"EU","home_link":null,"ident":"FR-0087","iso_country":"FR","wikipedia_link":null,"id":43427,"iso_region":"FR-IDF","keywords":null,"typeA":"heliport","municipality":"Flins-sur-Seine","code":null,"name":"Flins Heliport","scheduled_service":"no","other_name":null,"latitude_dege":"48.9819450378418","gps_code":null,"is_available":false},{"longitude_deg":"2.253890037536621","iata_code":null,"country_id":302687,"elevation_ft":"333","local_code":null,"continent":"EU","home_link":null,"ident":"FR-0088","iso_country":"FR","wikipedia_link":null,"id":43428,"iso_region":"FR-IDF","keywords":null,"typeA":"heliport","municipality":"Clamart","code":null,"name":"Hôpital D'Instruction Des Armées De Percy Heliport","scheduled_service":"no","other_name":null,"latitude_dege":"48.81420135498047","gps_code":null,"is_available":false},{"longitude_deg":"2.1702780723571777","iata_code":null,"country_id":302687,"elevation_ft":"446","local_code":null,"continent":"EU","home_link":null,"ident":"FR-0089","iso_country":"FR","wikipedia_link":null,"id":43429,"iso_region":"FR-IDF","keywords":null,"typeA":"heliport","municipality":"Garches","code":null,"name":"Hôpital Raymond Poincaré Heliport","scheduled_service":"no","other_name":null,"latitude_dege":"48.83944320678711","gps_code":null,"is_available":false},{"longitude_deg":"2.0716500282287598","iata_code":null,"country_id":302687,"elevation_ft":"518","local_code":null,"continent":"EU","home_link":null,"ident":"FR-0090","iso_country":"FR","wikipedia_link":null,"id":43430,"iso_region":"FR-IDF","keywords":null,"typeA":"heliport","municipality":"Guyancourt","code":null,"name":"Les Sangliers Heliport","scheduled_service":"no","other_name":null,"latitude_dege":"48.783538818359375","gps_code":null,"is_available":false},{"longitude_deg":"2.1447219848632812","iata_code":null,"country_id":302687,"elevation_ft":"135","local_code":null,"continent":"EU","home_link":null,"ident":"FR-0091","iso_country":"FR","wikipedia_link":null,"id":43431,"iso_region":"FR-IDF","keywords":null,"typeA":"heliport","municipality":"Saint-Ouen L'Aumone","code":null,"name":"Saint-Ouen L'Aumone Heliport","scheduled_service":"no","other_name":null,"latitude_dege":"49.057777404785156","gps_code":null,"is_available":false},{"longitude_deg":"2.1040709018707275","iata_code":null,"country_id":302687,"elevation_ft":"538","local_code":null,"continent":"EU","home_link":null,"ident":"FR-0092","iso_country":"FR","wikipedia_link":null,"id":43432,"iso_region":"FR-IDF","keywords":null,"typeA":"heliport","municipality":"Toussus Le Noble","code":null,"name":"Toussus Le Noble Heliport","scheduled_service":"no","other_name":null,"latitude_dege":"48.749610900878906","gps_code":null,"is_available":false},{"longitude_deg":"3.1600000858306885","iata_code":null,"country_id":302687,"elevation_ft":"50","local_code":null,"continent":"EU","home_link":null,"ident":"FR-0093","iso_country":"FR","wikipedia_link":null,"id":43433,"iso_region":"FR-OCC","keywords":null,"typeA":"heliport","municipality":"Cerbere","code":null,"name":"Centre Medical du Cap Peyrefite  Heliport","scheduled_service":"no","other_name":null,"latitude_dege":"42.45888900756836","gps_code":null,"is_available":false},{"longitude_deg":"2.341110944747925","iata_code":null,"country_id":302687,"elevation_ft":"475","local_code":null,"continent":"EU","home_link":null,"ident":"FR-0094","iso_country":"FR","wikipedia_link":null,"id":43434,"iso_region":"FR-OCC","keywords":null,"typeA":"heliport","municipality":"Carcassonne","code":null,"name":"Gayraud Centre Hospitalier Heliport","scheduled_service":"no","other_name":null,"latitude_dege":"43.19111251831055","gps_code":null,"is_available":false},{"longitude_deg":"3.255000114440918","iata_code":null,"country_id":302687,"elevation_ft":"176","local_code":null,"continent":"EU","home_link":null,"ident":"FR-0095","iso_country":"FR","wikipedia_link":null,"id":43435,"iso_region":"FR-OCC","keywords":null,"typeA":"heliport","municipality":"Beziers","code":null,"name":"Hôpital Montimaran Heliport","scheduled_service":"no","other_name":null,"latitude_dege":"43.34138870239258","gps_code":null,"is_available":false},{"longitude_deg":"3.8822219371795654","iata_code":null,"country_id":302687,"elevation_ft":"176","local_code":null,"continent":"EU","home_link":null,"ident":"FR-0096","iso_country":"FR","wikipedia_link":null,"id":43436,"iso_region":"FR-OCC","keywords":null,"typeA":"heliport","municipality":"Montpellier","code":null,"name":"Le Corum Heliport","scheduled_service":"no","other_name":null,"latitude_dege":"43.613609313964844","gps_code":null,"is_available":false},{"longitude_deg":"3.849721908569336","iata_code":null,"country_id":302687,"elevation_ft":"150","local_code":null,"continent":"EU","home_link":null,"ident":"FR-0097","iso_country":"FR","wikipedia_link":null,"id":43437,"iso_region":"FR-OCC","keywords":null,"typeA":"heliport","municipality":"Montpellier","code":null,"name":"Montpellier Chr Heliport","scheduled_service":"no","other_name":null,"latitude_dege":"43.630001068115234","gps_code":null,"is_available":false},{"longitude_deg":"3.051667","iata_code":null,"country_id":302687,"elevation_ft":"10","local_code":null,"continent":"EU","home_link":null,"ident":"FR-0098","iso_country":"FR","wikipedia_link":null,"id":43438,"iso_region":"FR-OCC","keywords":null,"typeA":"small_airport","municipality":"Narbonne","code":null,"name":"Narbonne","scheduled_service":"no","other_name":null,"latitude_dege":"43.194168","gps_code":"LFNN","is_available":false},{"longitude_deg":"2.990833","iata_code":null,"country_id":302687,"elevation_ft":"31","local_code":null,"continent":"EU","home_link":null,"ident":"FR-0099","iso_country":"FR","wikipedia_link":null,"id":43439,"iso_region":"FR-OCC","keywords":null,"typeA":"heliport","municipality":"Narbonne","code":null,"name":"St Crescent Heliport","scheduled_service":"no","other_name":null,"latitude_dege":"43.173611","gps_code":null,"is_available":false},{"longitude_deg":"1.20305597782135","iata_code":null,"country_id":302687,"elevation_ft":"1178","local_code":null,"continent":"EU","home_link":null,"ident":"FR-0100","iso_country":"FR","wikipedia_link":null,"id":43440,"iso_region":"FR-NAQ","keywords":null,"typeA":"heliport","municipality":"Saint-Yrieix","code":null,"name":"Centre Hospitalier La Perche Heliport","scheduled_service":"no","other_name":null,"latitude_dege":"45.516387939453125","gps_code":null,"is_available":false},{"longitude_deg":"1.5341670513153076","iata_code":null,"country_id":302687,"elevation_ft":"522","local_code":null,"continent":"EU","home_link":null,"ident":"FR-0101","iso_country":"FR","wikipedia_link":null,"id":43441,"iso_region":"FR-NAQ","keywords":null,"typeA":"heliport","municipality":"Brive-La Gaillarde","code":null,"name":"Brive-La Gaillarde Centre Hospitalier Heliport","scheduled_service":"no","other_name":null,"latitude_dege":"45.1702766418457","gps_code":null,"is_available":false},{"longitude_deg":"1.7666670083999634","iata_code":null,"country_id":302687,"elevation_ft":"794","local_code":null,"continent":"EU","home_link":null,"ident":"FR-0102","iso_country":"FR","wikipedia_link":null,"id":43442,"iso_region":"FR-NAQ","keywords":null,"typeA":"heliport","municipality":"Tulle","code":null,"name":"Centre Hospitalier Heliport","scheduled_service":"no","other_name":null,"latitude_dege":"45.266666412353516","gps_code":null,"is_available":false},{"longitude_deg":"1.2377779483795166","iata_code":null,"country_id":302687,"elevation_ft":"899","local_code":null,"continent":"EU","home_link":null,"ident":"FR-0103","iso_country":"FR","wikipedia_link":null,"id":43443,"iso_region":"FR-NAQ","keywords":null,"typeA":"heliport","municipality":"Limoges","code":null,"name":"Centre Hospitalier Heliport","scheduled_service":"no","other_name":null,"latitude_dege":"45.81388854980469","gps_code":null,"is_available":false},{"longitude_deg":"1.7513890266418457","iata_code":null,"country_id":302687,"elevation_ft":"1476","local_code":null,"continent":"EU","home_link":null,"ident":"FR-0104","iso_country":"FR","wikipedia_link":null,"id":43444,"iso_region":"FR-NAQ","keywords":null,"typeA":"heliport","municipality":"Bourganeuf","code":null,"name":"Centre Hospitalier Heliport","scheduled_service":"no","other_name":null,"latitude_dege":"45.95500183105469","gps_code":null,"is_available":false},{"longitude_deg":"2.3122220039367676","iata_code":null,"country_id":302687,"elevation_ft":"2148","local_code":null,"continent":"EU","home_link":null,"ident":"FR-0105","iso_country":"FR","wikipedia_link":null,"id":43445,"iso_region":"FR-NAQ","keywords":null,"typeA":"heliport","municipality":"Ussel","code":null,"name":"Centre Hospitalier Heliport","scheduled_service":"no","other_name":null,"latitude_dege":"45.54277801513672","gps_code":null,"is_available":false},{"longitude_deg":"1.8833329677581787","iata_code":null,"country_id":302687,"elevation_ft":"1542","local_code":null,"continent":"EU","home_link":null,"ident":"FR-0106","iso_country":"FR","wikipedia_link":null,"id":43446,"iso_region":"FR-NAQ","keywords":null,"typeA":"heliport","municipality":"Saint-Feyre","code":null,"name":"Centre Médical Heliport","scheduled_service":"no","other_name":null,"latitude_dege":"46.133331298828125","gps_code":null,"is_available":false},{"longitude_deg":"1.4500000476837158","iata_code":null,"country_id":302687,"elevation_ft":"344","local_code":null,"continent":"EU","home_link":null,"ident":"FR-0107","iso_country":"FR","wikipedia_link":null,"id":43447,"iso_region":"FR-NAQ","keywords":null,"typeA":"heliport","municipality":"Varetz","code":null,"name":"Château Castel Novel Heliport","scheduled_service":"no","other_name":null,"latitude_dege":"45.18333435058594","gps_code":null,"is_available":false},{"longitude_deg":"2.2088890075683594","iata_code":null,"country_id":302687,"elevation_ft":"26","local_code":null,"continent":"EU","home_link":null,"ident":"FR-0108","iso_country":"FR","wikipedia_link":null,"id":43448,"iso_region":"FR-NAQ","keywords":null,"typeA":"heliport","municipality":"Saint Maixant","code":null,"name":"Chateau De Saint Maixant Heliport","scheduled_service":"no","other_name":null,"latitude_dege":"45.99361038208008","gps_code":null,"is_available":false},{"longitude_deg":"6.151389122009277","iata_code":null,"country_id":302687,"elevation_ft":"1335","local_code":null,"continent":"EU","home_link":null,"ident":"FR-0109","iso_country":"FR","wikipedia_link":null,"id":43449,"iso_region":"FR-GES","keywords":null,"typeA":"heliport","municipality":"Nancy","code":null,"name":"Brabois Centre Hospitalier Heliport","scheduled_service":"no","other_name":null,"latitude_dege":"48.64472198486328","gps_code":null,"is_available":false},{"longitude_deg":"5.9293107986450195","iata_code":null,"country_id":302687,"elevation_ft":"755","local_code":null,"continent":"EU","home_link":null,"ident":"FR-0110","iso_country":"FR","wikipedia_link":null,"id":43450,"iso_region":"FR-GES","keywords":null,"typeA":"heliport","municipality":"Dommartin Les Toul","code":null,"name":"Centre Hospitalier Heliport","scheduled_service":"no","other_name":null,"latitude_dege":"48.67070770263672","gps_code":null,"is_available":false},{"longitude_deg":"6.7216668128967285","iata_code":null,"country_id":302687,"elevation_ft":"854","local_code":null,"continent":"EU","home_link":null,"ident":"FR-0111","iso_country":"FR","wikipedia_link":null,"id":43451,"iso_region":"FR-GES","keywords":null,"typeA":"heliport","municipality":"Saint-Avold","code":null,"name":"Centre Hospitalier Heliport","scheduled_service":"no","other_name":null,"latitude_dege":"49.112220764160156","gps_code":null,"is_available":false},{"longitude_deg":"5.785929","iata_code":null,"country_id":302687,"elevation_ft":"875","local_code":null,"continent":"EU","home_link":null,"ident":"FR-0112","iso_country":"FR","wikipedia_link":null,"id":43452,"iso_region":"FR-GES","keywords":null,"typeA":"heliport","municipality":"Longwy","code":null,"name":"Etablissement Public Heliport","scheduled_service":"no","other_name":null,"latitude_dege":"49.531286","gps_code":null,"is_available":false},{"longitude_deg":"6.192500114440918","iata_code":null,"country_id":302687,"elevation_ft":"749","local_code":null,"continent":"EU","home_link":null,"ident":"FR-0113","iso_country":"FR","wikipedia_link":null,"id":43453,"iso_region":"FR-GES","keywords":null,"typeA":"heliport","municipality":"Nancy","code":null,"name":"Hôpital Central Heliport","scheduled_service":"no","other_name":null,"latitude_dege":"48.685279846191406","gps_code":null,"is_available":false},{"longitude_deg":"6.231389045715332","iata_code":null,"country_id":302687,"elevation_ft":"722","local_code":null,"continent":"EU","home_link":null,"ident":"FR-0114","iso_country":"FR","wikipedia_link":null,"id":43454,"iso_region":"FR-GES","keywords":null,"typeA":"heliport","municipality":"Metz","code":null,"name":"Technopole 2000 Heliport","scheduled_service":"no","other_name":null,"latitude_dege":"49.09111022949219","gps_code":null,"is_available":false},{"longitude_deg":"-0.08333300054073334","iata_code":null,"country_id":302687,"elevation_ft":"1312","local_code":null,"continent":"EU","home_link":null,"ident":"FR-0115","iso_country":"FR","wikipedia_link":null,"id":43455,"iso_region":"FR-OCC","keywords":null,"typeA":"heliport","municipality":"Ayros","code":null,"name":"Arbouix Heliport","scheduled_service":"no","other_name":null,"latitude_dege":"43.002777099609375","gps_code":null,"is_available":false},{"longitude_deg":"0.5733330249786377","iata_code":null,"country_id":302687,"elevation_ft":"597","local_code":null,"continent":"EU","home_link":null,"ident":"FR-0116","iso_country":"FR","wikipedia_link":null,"id":43456,"iso_region":"FR-OCC","keywords":null,"typeA":"heliport","municipality":"Auch","code":null,"name":"Centre Hospitalier Heliport","scheduled_service":"no","other_name":null,"latitude_dege":"43.63138961791992","gps_code":null,"is_available":false},{"longitude_deg":"2.2391669750213623","iata_code":null,"country_id":302687,"elevation_ft":"642","local_code":null,"continent":"EU","home_link":null,"ident":"FR-0117","iso_country":"FR","wikipedia_link":null,"id":43457,"iso_region":"FR-OCC","keywords":null,"typeA":"heliport","municipality":"Castres","code":null,"name":"Centre Hospitalier Heliport","scheduled_service":"no","other_name":null,"latitude_dege":"43.60388946533203","gps_code":null,"is_available":false},{"longitude_deg":"1.611111044883728","iata_code":null,"country_id":302687,"elevation_ft":"1476","local_code":null,"continent":"EU","home_link":null,"ident":"FR-0118","iso_country":"FR","wikipedia_link":null,"id":43458,"iso_region":"FR-OCC","keywords":null,"typeA":"heliport","municipality":"Foix","code":null,"name":"Centre Hospitalier Heliport","scheduled_service":"no","other_name":null,"latitude_dege":"42.95277786254883","gps_code":null,"is_available":false},{"longitude_deg":"2.5519440174102783","iata_code":null,"country_id":302687,"elevation_ft":"1951","local_code":null,"continent":"EU","home_link":null,"ident":"FR-0119","iso_country":"FR","wikipedia_link":null,"id":43459,"iso_region":"FR-OCC","keywords":null,"typeA":"heliport","municipality":"Rodez Bourran","code":null,"name":"Centre Hospitalier Heliport","scheduled_service":"no","other_name":null,"latitude_dege":"44.358890533447266","gps_code":null,"is_available":false},{"longitude_deg":"1.6174999475479126","iata_code":null,"country_id":302687,"elevation_ft":"1151","local_code":null,"continent":"EU","home_link":null,"ident":"FR-0120","iso_country":"FR","wikipedia_link":null,"id":43460,"iso_region":"FR-OCC","keywords":null,"typeA":"heliport","municipality":"Foix","code":null,"name":"Centre Hospitalier Intercommunal du Val d'Ariege Heliport","scheduled_service":"no","other_name":null,"latitude_dege":"43.02527618408203","gps_code":null,"is_available":false},{"longitude_deg":"1.399999976158142","iata_code":null,"country_id":302687,"elevation_ft":"531","local_code":null,"continent":"EU","home_link":null,"ident":"FR-0121","iso_country":"FR","wikipedia_link":null,"id":43461,"iso_region":"FR-OCC","keywords":null,"typeA":"heliport","municipality":"Toulouse-Purpan","code":null,"name":"Centre Hospitalier Régional Heliport","scheduled_service":"no","other_name":null,"latitude_dege":"43.61305618286133","gps_code":null,"is_available":false},{"longitude_deg":"1.7255560159683228","iata_code":null,"country_id":302687,"elevation_ft":"623","local_code":null,"continent":"EU","home_link":null,"ident":"FR-0122","iso_country":"FR","wikipedia_link":null,"id":43462,"iso_region":"FR-OCC","keywords":null,"typeA":"heliport","municipality":"Renneville","code":null,"name":"Renneville Heliport","scheduled_service":"no","other_name":null,"latitude_dege":"43.3738899230957","gps_code":null,"is_available":false},{"longitude_deg":"1.4486110210418701","iata_code":null,"country_id":302687,"elevation_ft":"793","local_code":null,"continent":"EU","home_link":null,"ident":"FR-0123","iso_country":"FR","wikipedia_link":null,"id":43463,"iso_region":"FR-OCC","keywords":null,"typeA":"heliport","municipality":"Toulouse Rangueil Pech David","code":null,"name":"Toulouse Rangueil Pech David Heliport","scheduled_service":"no","other_name":null,"latitude_dege":"43.5613899230957","gps_code":null,"is_available":false},{"longitude_deg":"1.6288889646530151","iata_code":null,"country_id":302687,"elevation_ft":"279","local_code":null,"continent":"EU","home_link":null,"ident":"FR-0124","iso_country":"FR","wikipedia_link":null,"id":43464,"iso_region":"FR-HDF","keywords":null,"typeA":"heliport","municipality":"Boulogne Sur Mer","code":null,"name":"Boulogne Sur Mer Centre Hospitalier Heliport","scheduled_service":"no","other_name":null,"latitude_dege":"50.72305679321289","gps_code":null,"is_available":false},{"longitude_deg":"1.5641670227050781","iata_code":null,"country_id":302687,"elevation_ft":"42","local_code":null,"continent":"EU","home_link":null,"ident":"FR-0125","iso_country":"FR","wikipedia_link":null,"id":43465,"iso_region":"FR-HDF","keywords":null,"typeA":"heliport","municipality":"Berck-Sur-Mer","code":null,"name":"Centre Hospitalier Heliport","scheduled_service":"no","other_name":null,"latitude_dege":"50.418331146240234","gps_code":null,"is_available":false},{"longitude_deg":"2.396667003631592","iata_code":null,"country_id":302687,"elevation_ft":"55","local_code":null,"continent":"EU","home_link":null,"ident":"FR-0126","iso_country":"FR","wikipedia_link":null,"id":43466,"iso_region":"FR-HDF","keywords":null,"typeA":"heliport","municipality":"Dunkerque","code":null,"name":"Centre Hospitalier Heliport","scheduled_service":"no","other_name":null,"latitude_dege":"51.037498474121094","gps_code":null,"is_available":false},{"longitude_deg":"1.6630560159683228","iata_code":null,"country_id":302687,"elevation_ft":"152","local_code":null,"continent":"EU","home_link":null,"ident":"FR-0127","iso_country":"FR","wikipedia_link":null,"id":43467,"iso_region":"FR-HDF","keywords":null,"typeA":"heliport","municipality":"Rang Du Fliers","code":null,"name":"Centre Hospitalier Heliport","scheduled_service":"no","other_name":null,"latitude_dege":"50.41444396972656","gps_code":null,"is_available":false},{"longitude_deg":"2.2547221183776855","iata_code":null,"country_id":302687,"elevation_ft":"276","local_code":null,"continent":"EU","home_link":null,"ident":"FR-0128","iso_country":"FR","wikipedia_link":null,"id":43468,"iso_region":"FR-HDF","keywords":null,"typeA":"heliport","municipality":"Saint-Omer","code":null,"name":"Centre Hospitalier Heliport","scheduled_service":"no","other_name":null,"latitude_dege":"50.703609466552734","gps_code":null,"is_available":false},{"longitude_deg":"3.0344440937042236","iata_code":null,"country_id":302687,"elevation_ft":"89","local_code":null,"continent":"EU","home_link":null,"ident":"FR-0129","iso_country":"FR","wikipedia_link":null,"id":43469,"iso_region":"FR-HDF","keywords":null,"typeA":"heliport","municipality":"Lille","code":null,"name":"Centre Hospitalier Régional Heliport","scheduled_service":"no","other_name":null,"latitude_dege":"50.60416793823242","gps_code":null,"is_available":false},{"longitude_deg":"1.7949999570846558","iata_code":null,"country_id":302687,"elevation_ft":"31","local_code":null,"continent":"EU","home_link":null,"ident":"FR-0130","iso_country":"FR","wikipedia_link":null,"id":43470,"iso_region":"FR-HDF","keywords":null,"typeA":"heliport","municipality":"Coquelles","code":null,"name":"Coquelles Eurotunnel Heliport","scheduled_service":"no","other_name":null,"latitude_dege":"50.91805648803711","gps_code":null,"is_available":false},{"longitude_deg":"2.336944103240967","iata_code":null,"country_id":302687,"elevation_ft":"417","local_code":null,"continent":"EU","home_link":null,"ident":"FR-0131","iso_country":"FR","wikipedia_link":null,"id":43471,"iso_region":"FR-HDF","keywords":null,"typeA":"heliport","municipality":"Saint Pol Sur Ternoise","code":null,"name":"Polyclinique Du Ternois Heliport","scheduled_service":"no","other_name":null,"latitude_dege":"50.38833236694336","gps_code":null,"is_available":false},{"longitude_deg":"2.9097089767456055","iata_code":null,"country_id":302687,"elevation_ft":"203","local_code":null,"continent":"EU","home_link":null,"ident":"FR-0132","iso_country":"FR","wikipedia_link":null,"id":43472,"iso_region":"FR-HDF","keywords":null,"typeA":"heliport","municipality":"Bois Bernard","code":null,"name":"Polyclinique Heliport","scheduled_service":"no","other_name":null,"latitude_dege":"50.37540817260742","gps_code":null,"is_available":false},{"longitude_deg":"3.037777900695801","iata_code":null,"country_id":302687,"elevation_ft":"95","local_code":null,"continent":"EU","home_link":null,"ident":"FR-0133","iso_country":"FR","wikipedia_link":null,"id":43473,"iso_region":"FR-HDF","keywords":null,"typeA":"heliport","municipality":"Douai","code":null,"name":"Usine Renault Heliport","scheduled_service":"no","other_name":null,"latitude_dege":"50.362220764160156","gps_code":null,"is_available":false},{"longitude_deg":"-1.6399999856948853","iata_code":null,"country_id":302687,"elevation_ft":"26","local_code":null,"continent":"EU","home_link":null,"ident":"FR-0134","iso_country":"FR","wikipedia_link":null,"id":43474,"iso_region":"FR-NOR","keywords":null,"typeA":"heliport","municipality":"Cherbourg","code":null,"name":"Arsenal-Premar Heliport","scheduled_service":"no","other_name":null,"latitude_dege":"49.65388870239258","gps_code":null,"is_available":false},{"longitude_deg":"-1.342221975326538","iata_code":null,"country_id":302687,"elevation_ft":"36","local_code":null,"continent":"EU","home_link":null,"ident":"FR-0135","iso_country":"FR","wikipedia_link":null,"id":43475,"iso_region":"FR-NOR","keywords":null,"typeA":"heliport","municipality":"Avranches","code":null,"name":"Avranches Heliport","scheduled_service":"no","other_name":null,"latitude_dege":"48.692501068115234","gps_code":null,"is_available":false},{"longitude_deg":"-0.3550119996070862","iata_code":null,"country_id":302687,"elevation_ft":"220","local_code":null,"continent":"EU","home_link":null,"ident":"FR-0136","iso_country":"FR","wikipedia_link":null,"id":43476,"iso_region":"FR-NOR","keywords":null,"typeA":"heliport","municipality":"Caen","code":null,"name":"Centre Hospitalie Heliport","scheduled_service":"no","other_name":null,"latitude_dege":"49.20628356933594","gps_code":null,"is_available":false},{"longitude_deg":"-1.611111044883728","iata_code":null,"country_id":302687,"elevation_ft":"62","local_code":null,"continent":"EU","home_link":null,"ident":"FR-0137","iso_country":"FR","wikipedia_link":null,"id":43477,"iso_region":"FR-NOR","keywords":null,"typeA":"heliport","municipality":"Cherbourg","code":null,"name":"Centre Hospitalier Heliport","scheduled_service":"no","other_name":null,"latitude_dege":"49.63888931274414","gps_code":null,"is_available":false},{"longitude_deg":"-1.44343900680542","iata_code":null,"country_id":302687,"elevation_ft":"128","local_code":null,"continent":"EU","home_link":null,"ident":"FR-0138","iso_country":"FR","wikipedia_link":null,"id":43478,"iso_region":"FR-NOR","keywords":null,"typeA":"heliport","municipality":"Coutances","code":null,"name":"Centre Hospitalier Heliport","scheduled_service":"no","other_name":null,"latitude_dege":"49.041236877441406","gps_code":null,"is_available":false},{"longitude_deg":"0.08388900011777878","iata_code":null,"country_id":302687,"elevation_ft":"443","local_code":null,"continent":"EU","home_link":null,"ident":"FR-0139","iso_country":"FR","wikipedia_link":null,"id":43479,"iso_region":"FR-NOR","keywords":null,"typeA":"heliport","municipality":"Alencon","code":null,"name":"Centre Hospitalier Heliport","scheduled_service":"no","other_name":null,"latitude_dege":"48.42527770996094","gps_code":null,"is_available":false},{"longitude_deg":"-0.017777999863028526","iata_code":null,"country_id":302687,"elevation_ft":"596","local_code":null,"continent":"EU","home_link":null,"ident":"FR-0140","iso_country":"FR","wikipedia_link":null,"id":43480,"iso_region":"FR-NOR","keywords":null,"typeA":"heliport","municipality":"Argentan","code":null,"name":"Centre Hospitalier Heliport","scheduled_service":"no","other_name":null,"latitude_dege":"48.746665954589844","gps_code":null,"is_available":false},{"longitude_deg":"0.6103230118751526","iata_code":null,"country_id":302687,"elevation_ft":"764","local_code":null,"continent":"EU","home_link":null,"ident":"FR-0141","iso_country":"FR","wikipedia_link":null,"id":43481,"iso_region":"FR-NOR","keywords":null,"typeA":"heliport","municipality":"L'Aigle","code":null,"name":"Centre Hospitalier Heliport","scheduled_service":"no","other_name":null,"latitude_dege":"48.767051696777344","gps_code":null,"is_available":false},{"longitude_deg":"-1.5833330154418945","iata_code":null,"country_id":302687,"elevation_ft":"167","local_code":null,"continent":"EU","home_link":null,"ident":"FR-0142","iso_country":"FR","wikipedia_link":null,"id":43482,"iso_region":"FR-NOR","keywords":null,"typeA":"heliport","municipality":"Granville","code":null,"name":"Centre Hospitalier J. Monod Heliport","scheduled_service":"no","other_name":null,"latitude_dege":"48.849998474121094","gps_code":null,"is_available":false},{"longitude_deg":"-1.9099539518356323","iata_code":null,"country_id":302687,"elevation_ft":"482","local_code":null,"continent":"EU","home_link":null,"ident":"FR-0143","iso_country":"FR","wikipedia_link":null,"id":43483,"iso_region":"FR-NOR","keywords":null,"typeA":"heliport","municipality":"Jobourg","code":null,"name":"Crossma Heliport","scheduled_service":"no","other_name":null,"latitude_dege":"49.685123443603516","gps_code":null,"is_available":false},{"longitude_deg":"-1.5757219791412354","iata_code":null,"country_id":302687,"elevation_ft":"33","local_code":null,"continent":"EU","home_link":null,"ident":"FR-0144","iso_country":"FR","wikipedia_link":null,"id":43484,"iso_region":"FR-NOR","keywords":null,"typeA":"heliport","municipality":"Donville-Les-Bains","code":null,"name":"Donville-Les-Bains Heliport","scheduled_service":"no","other_name":null,"latitude_dege":"48.8663330078125","gps_code":null,"is_available":false},{"longitude_deg":"-1.8817059993743896","iata_code":null,"country_id":302687,"elevation_ft":"269","local_code":null,"continent":"EU","home_link":null,"ident":"FR-0145","iso_country":"FR","wikipedia_link":null,"id":43485,"iso_region":"FR-NOR","keywords":null,"typeA":"heliport","municipality":"Flamanville","code":null,"name":"Flamanville Heliport","scheduled_service":"no","other_name":null,"latitude_dege":"49.533355712890625","gps_code":null,"is_available":false},{"longitude_deg":"-1.1061110496520996","iata_code":null,"country_id":302687,"elevation_ft":"131","local_code":null,"continent":"EU","home_link":null,"ident":"FR-0146","iso_country":"FR","wikipedia_link":null,"id":43486,"iso_region":"FR-NOR","keywords":null,"typeA":"heliport","municipality":"Saint-Lo","code":null,"name":"Hôpital de Saint-Lo Heliport","scheduled_service":"no","other_name":null,"latitude_dege":"49.10527801513672","gps_code":null,"is_available":false},{"longitude_deg":"0.22359499335289001","iata_code":null,"country_id":302687,"elevation_ft":"102","local_code":null,"continent":"EU","home_link":null,"ident":"FR-0147","iso_country":"FR","wikipedia_link":null,"id":43487,"iso_region":"FR-NOR","keywords":null,"typeA":"heliport","municipality":"Honfleur","code":null,"name":"La Ferme Saint Siméon Heliport","scheduled_service":"no","other_name":null,"latitude_dege":"49.424686431884766","gps_code":null,"is_available":false},{"longitude_deg":"1.5333329439163208","iata_code":null,"country_id":302687,"elevation_ft":"492","local_code":null,"continent":"EU","home_link":null,"ident":"FR-0148","iso_country":"FR","wikipedia_link":null,"id":43488,"iso_region":"FR-NOR","keywords":null,"typeA":"heliport","municipality":"Forges Les Eaux","code":null,"name":"Casino Heliport","scheduled_service":"no","other_name":null,"latitude_dege":"49.599998474121094","gps_code":null,"is_available":false},{"longitude_deg":"0.8361110091209412","iata_code":null,"country_id":302687,"elevation_ft":"643","local_code":null,"continent":"EU","home_link":null,"ident":"FR-0149","iso_country":"FR","wikipedia_link":null,"id":43489,"iso_region":"FR-NOR","keywords":null,"typeA":"heliport","municipality":"Verneuil","code":null,"name":"Center Parc Heliport","scheduled_service":"no","other_name":null,"latitude_dege":"48.724998474121094","gps_code":null,"is_available":false},{"longitude_deg":"0.6312599778175354","iata_code":null,"country_id":302687,"elevation_ft":"305","local_code":null,"continent":"EU","home_link":null,"ident":"FR-0150","iso_country":"FR","wikipedia_link":null,"id":43490,"iso_region":"FR-NOR","keywords":null,"typeA":"heliport","municipality":"Paluel","code":null,"name":"Centrale Nucléaire Heliport","scheduled_service":"no","other_name":null,"latitude_dege":"49.85359191894531","gps_code":null,"is_available":false},{"longitude_deg":"1.2138890027999878","iata_code":null,"country_id":302687,"elevation_ft":"322","local_code":null,"continent":"EU","home_link":null,"ident":"FR-0151","iso_country":"FR","wikipedia_link":null,"id":43491,"iso_region":"FR-NOR","keywords":null,"typeA":"heliport","municipality":"Penly","code":null,"name":"Centrale Nucléaire Heliport","scheduled_service":"no","other_name":null,"latitude_dege":"49.97222137451172","gps_code":null,"is_available":false},{"longitude_deg":"0.8916670083999634","iata_code":null,"country_id":302687,"elevation_ft":"597","local_code":null,"continent":"EU","home_link":null,"ident":"FR-0152","iso_country":"FR","wikipedia_link":null,"id":43492,"iso_region":"FR-NOR","keywords":null,"typeA":"heliport","municipality":"Verneuil Sur Avre","code":null,"name":"Centre Hospitalier de Verneuil Heliport","scheduled_service":"no","other_name":null,"latitude_dege":"48.74444580078125","gps_code":null,"is_available":false},{"longitude_deg":"1.111109972000122","iata_code":null,"country_id":302687,"elevation_ft":"145","local_code":null,"continent":"EU","home_link":null,"ident":"FR-0153","iso_country":"FR","wikipedia_link":null,"id":43493,"iso_region":"FR-NOR","keywords":null,"typeA":"heliport","municipality":"Rouen","code":null,"name":"Centre Hospitalier Heliport","scheduled_service":"no","other_name":null,"latitude_dege":"49.44060134887695","gps_code":null,"is_available":false},{"longitude_deg":"0.38555601239204407","iata_code":null,"country_id":302687,"elevation_ft":"318","local_code":null,"continent":"EU","home_link":null,"ident":"FR-0154","iso_country":"FR","wikipedia_link":null,"id":43494,"iso_region":"FR-NOR","keywords":null,"typeA":"heliport","municipality":"Fecamp","code":null,"name":"Centre Hospitalier Heliport","scheduled_service":"no","other_name":null,"latitude_dege":"49.74305725097656","gps_code":null,"is_available":false},{"longitude_deg":"0.9805819988250732","iata_code":null,"country_id":302687,"elevation_ft":"16","local_code":null,"continent":"EU","home_link":null,"ident":"FR-0155","iso_country":"FR","wikipedia_link":null,"id":43495,"iso_region":"FR-NOR","keywords":null,"typeA":"heliport","municipality":"Rouen","code":null,"name":"Grand Couronne Heliport","scheduled_service":"no","other_name":null,"latitude_dege":"49.3502311706543","gps_code":null,"is_available":false},{"longitude_deg":"0.18472200632095337","iata_code":null,"country_id":302687,"elevation_ft":"40","local_code":null,"continent":"EU","home_link":null,"ident":"FR-0156","iso_country":"FR","wikipedia_link":null,"id":43496,"iso_region":"FR-NOR","keywords":null,"typeA":"heliport","municipality":"Le Havre","code":null,"name":"Hopital Jacques Monod Heliport","scheduled_service":"no","other_name":null,"latitude_dege":"49.524723052978516","gps_code":null,"is_available":false},{"longitude_deg":"0.30250000953674316","iata_code":null,"country_id":302687,"elevation_ft":"17","local_code":null,"continent":"EU","home_link":null,"ident":"FR-0157","iso_country":"FR","wikipedia_link":null,"id":43497,"iso_region":"FR-NOR","keywords":null,"typeA":"heliport","municipality":"Sandouville","code":null,"name":"Usine Renault Heliport","scheduled_service":"no","other_name":null,"latitude_dege":"49.47666549682617","gps_code":null,"is_available":false},{"longitude_deg":"-2.088156","iata_code":null,"country_id":302687,"elevation_ft":"10","local_code":null,"continent":"EU","home_link":null,"ident":"FR-0158","iso_country":"FR","wikipedia_link":null,"id":43498,"iso_region":"FR-PDL","keywords":null,"typeA":"heliport","municipality":"Beauvoir-Sur-Mer","code":null,"name":"Beauvoir-Sur-Mer Fromentine Heliport","scheduled_service":"no","other_name":null,"latitude_dege":"46.890148","gps_code":"LFFO","is_available":false},{"longitude_deg":"-0.8958330154418945","iata_code":null,"country_id":302687,"elevation_ft":"351","local_code":null,"continent":"EU","home_link":null,"ident":"FR-0159","iso_country":"FR","wikipedia_link":null,"id":43499,"iso_region":"FR-PDL","keywords":null,"typeA":"heliport","municipality":"Cholet","code":null,"name":"Centre Hospitalier Cholet Heliport","scheduled_service":"no","other_name":null,"latitude_dege":"47.04222106933594","gps_code":null,"is_available":false},{"longitude_deg":"-2.2366669178009033","iata_code":null,"country_id":302687,"elevation_ft":"62","local_code":null,"continent":"EU","home_link":null,"ident":"FR-0160","iso_country":"FR","wikipedia_link":null,"id":43500,"iso_region":"FR-PDL","keywords":null,"typeA":"heliport","municipality":"Saint-Nazaire","code":null,"name":"Centre Hospitalier Heliport","scheduled_service":"no","other_name":null,"latitude_dege":"47.27583312988281","gps_code":null,"is_available":false},{"longitude_deg":"-0.5541669726371765","iata_code":null,"country_id":302687,"elevation_ft":"149","local_code":null,"continent":"EU","home_link":null,"ident":"FR-0161","iso_country":"FR","wikipedia_link":null,"id":43501,"iso_region":"FR-PDL","keywords":null,"typeA":"heliport","municipality":"Angers","code":null,"name":"Centre Hospitalier Heliport","scheduled_service":"no","other_name":null,"latitude_dege":"47.49027633666992","gps_code":null,"is_available":false},{"longitude_deg":"-0.05944399908185005","iata_code":null,"country_id":302687,"elevation_ft":"272","local_code":null,"continent":"EU","home_link":null,"ident":"FR-0162","iso_country":"FR","wikipedia_link":null,"id":43502,"iso_region":"FR-PDL","keywords":null,"typeA":"heliport","municipality":"Saumur","code":null,"name":"Centre Hospitalier Heliport","scheduled_service":"no","other_name":null,"latitude_dege":"47.24555587768555","gps_code":null,"is_available":false},{"longitude_deg":"-0.7833330035209656","iata_code":null,"country_id":302687,"elevation_ft":"279","local_code":null,"continent":"EU","home_link":null,"ident":"FR-0163","iso_country":"FR","wikipedia_link":null,"id":43503,"iso_region":"FR-PDL","keywords":null,"typeA":"heliport","municipality":"Laval","code":null,"name":"Centre Hospitalier Heliport","scheduled_service":"no","other_name":null,"latitude_dege":"48.06666564941406","gps_code":null,"is_available":false},{"longitude_deg":"-1.8305690288543701","iata_code":null,"country_id":302687,"elevation_ft":"130","local_code":null,"continent":"EU","home_link":null,"ident":"FR-0164","iso_country":"FR","wikipedia_link":null,"id":43504,"iso_region":"FR-PDL","keywords":null,"typeA":"heliport","municipality":"Challans","code":null,"name":"Challans Heliport","scheduled_service":"no","other_name":null,"latitude_dege":"46.853729248046875","gps_code":null,"is_available":false},{"longitude_deg":"-2.35029888","iata_code":null,"country_id":302687,"elevation_ft":"10","local_code":null,"continent":"EU","home_link":null,"ident":"FR-0165","iso_country":"FR","wikipedia_link":null,"id":43505,"iso_region":"FR-PDL","keywords":null,"typeA":"heliport","municipality":"Port Joinville (Ile D'Yeu)","code":null,"name":"Ile D'Yeu Port Joinville Heliport","scheduled_service":"no","other_name":null,"latitude_dege":"46.7282257","gps_code":null,"is_available":false},{"longitude_deg":"-1.5534069538116455","iata_code":null,"country_id":302687,"elevation_ft":"77","local_code":null,"continent":"EU","home_link":null,"ident":"FR-0166","iso_country":"FR","wikipedia_link":null,"id":43506,"iso_region":"FR-PDL","keywords":null,"typeA":"heliport","municipality":"Nantes","code":null,"name":"Quai Moncousu Heliport","scheduled_service":"no","other_name":null,"latitude_dege":"47.20897674560547","gps_code":null,"is_available":false},{"longitude_deg":"3.21476411819458","iata_code":null,"country_id":302687,"elevation_ft":"220","local_code":null,"continent":"EU","home_link":null,"ident":"FR-0167","iso_country":"FR","wikipedia_link":null,"id":43507,"iso_region":"FR-HDF","keywords":null,"typeA":"heliport","municipality":"Jussy","code":null,"name":"Camas Heliport","scheduled_service":"no","other_name":null,"latitude_dege":"49.73249816894531","gps_code":null,"is_available":false},{"longitude_deg":"1.831298","iata_code":null,"country_id":302687,"elevation_ft":"82","local_code":null,"continent":"EU","home_link":null,"ident":"FR-0168","iso_country":"FR","wikipedia_link":null,"id":43508,"iso_region":"FR-HDF","keywords":null,"typeA":"heliport","municipality":"Abbeville","code":null,"name":"Abbeville Medical Center Heliport","scheduled_service":"no","other_name":null,"latitude_dege":"50.101535","gps_code":null,"is_available":false},{"longitude_deg":"2.79555606842041","iata_code":null,"country_id":302687,"elevation_ft":"108","local_code":null,"continent":"EU","home_link":null,"ident":"FR-0169","iso_country":"FR","wikipedia_link":null,"id":43509,"iso_region":"FR-HDF","keywords":null,"typeA":"heliport","municipality":"Compiegne","code":null,"name":"Centre Hospitalier Heliport","scheduled_service":"no","other_name":null,"latitude_dege":"49.38972091674805","gps_code":null,"is_available":false},{"longitude_deg":"3.335278034210205","iata_code":null,"country_id":302687,"elevation_ft":"172","local_code":null,"continent":"EU","home_link":null,"ident":"FR-0170","iso_country":"FR","wikipedia_link":null,"id":43510,"iso_region":"FR-HDF","keywords":null,"typeA":"heliport","municipality":"Soissons","code":null,"name":"Centre Hospitalier Heliport","scheduled_service":"no","other_name":null,"latitude_dege":"49.369998931884766","gps_code":null,"is_available":false},{"longitude_deg":"3.237499952316284","iata_code":null,"country_id":302687,"elevation_ft":"180","local_code":null,"continent":"EU","home_link":null,"ident":"FR-0171","iso_country":"FR","wikipedia_link":null,"id":43511,"iso_region":"FR-HDF","keywords":null,"typeA":"heliport","municipality":"Chauny","code":null,"name":"Centre Hospitalier Heliport","scheduled_service":"no","other_name":null,"latitude_dege":"49.6261100769043","gps_code":null,"is_available":false},{"longitude_deg":"2.353332996368408","iata_code":null,"country_id":302687,"elevation_ft":"236","local_code":null,"continent":"EU","home_link":null,"ident":"FR-0172","iso_country":"FR","wikipedia_link":null,"id":43512,"iso_region":"FR-HDF","keywords":null,"typeA":"heliport","municipality":"Doullens","code":null,"name":"Centre Hospitalier Heliport","scheduled_service":"no","other_name":null,"latitude_dege":"50.15388870239258","gps_code":null,"is_available":false},{"longitude_deg":"2.4580559730529785","iata_code":null,"country_id":302687,"elevation_ft":"238","local_code":null,"continent":"EU","home_link":null,"ident":"FR-0173","iso_country":"FR","wikipedia_link":null,"id":43513,"iso_region":"FR-HDF","keywords":null,"typeA":"heliport","municipality":"Creil","code":null,"name":"Centre Hospitalier Laënnec Heliport","scheduled_service":"no","other_name":null,"latitude_dege":"49.247222900390625","gps_code":null,"is_available":false},{"longitude_deg":"2.2536110877990723","iata_code":null,"country_id":302687,"elevation_ft":"199","local_code":null,"continent":"EU","home_link":null,"ident":"FR-0174","iso_country":"FR","wikipedia_link":null,"id":43514,"iso_region":"FR-HDF","keywords":null,"typeA":"heliport","municipality":"Amiens","code":null,"name":"Centre Hospitalier Sud Heliport","scheduled_service":"no","other_name":null,"latitude_dege":"49.872779846191406","gps_code":null,"is_available":false},{"longitude_deg":"0.38277798891067505","iata_code":null,"country_id":302687,"elevation_ft":"400","local_code":null,"continent":"EU","home_link":null,"ident":"FR-0175","iso_country":"FR","wikipedia_link":null,"id":43515,"iso_region":"FR-NAQ","keywords":null,"typeA":"heliport","municipality":"Poitiers","code":null,"name":"Centre Hospitalier De Poitiers Heliport","scheduled_service":"no","other_name":null,"latitude_dege":"46.56055450439453","gps_code":null,"is_available":false},{"longitude_deg":"-0.6549999713897705","iata_code":null,"country_id":302687,"elevation_ft":"135","local_code":null,"continent":"EU","home_link":null,"ident":"FR-0176","iso_country":"FR","wikipedia_link":null,"id":43516,"iso_region":"FR-NAQ","keywords":null,"typeA":"heliport","municipality":"Saintes","code":null,"name":"Centre Hospitalier de Saintongues Heliport","scheduled_service":"no","other_name":null,"latitude_dege":"45.747779846191406","gps_code":null,"is_available":false},{"longitude_deg":"-1.0608329772949219","iata_code":null,"country_id":302687,"elevation_ft":"30","local_code":null,"continent":"EU","home_link":null,"ident":"FR-0177","iso_country":"FR","wikipedia_link":null,"id":43517,"iso_region":"FR-NAQ","keywords":null,"typeA":"heliport","municipality":"Royan","code":null,"name":"Centre Hospitalier Heliport","scheduled_service":"no","other_name":null,"latitude_dege":"45.633331298828125","gps_code":null,"is_available":false},{"longitude_deg":"-1.142591953277588","iata_code":null,"country_id":302687,"elevation_ft":"49","local_code":null,"continent":"EU","home_link":null,"ident":"FR-0178","iso_country":"FR","wikipedia_link":null,"id":43518,"iso_region":"FR-NAQ","keywords":null,"typeA":"heliport","municipality":"La Rochelle","code":null,"name":"Centre Hospitalier Heliport","scheduled_service":"no","other_name":null,"latitude_dege":"46.159000396728516","gps_code":null,"is_available":false},{"longitude_deg":"-0.45833298563957214","iata_code":null,"country_id":302687,"elevation_ft":"108","local_code":null,"continent":"EU","home_link":null,"ident":"FR-0179","iso_country":"FR","wikipedia_link":null,"id":43519,"iso_region":"FR-NAQ","keywords":null,"typeA":"heliport","municipality":"Niort","code":null,"name":"Centre Hospitalier Heliport","scheduled_service":"no","other_name":null,"latitude_dege":"46.31611251831055","gps_code":null,"is_available":false},{"longitude_deg":"0.1177780032157898","iata_code":null,"country_id":302687,"elevation_ft":"151","local_code":null,"continent":"EU","home_link":null,"ident":"FR-0180","iso_country":"FR","wikipedia_link":null,"id":43520,"iso_region":"FR-NAQ","keywords":null,"typeA":"heliport","municipality":"Angouleme","code":null,"name":"Centre Hospitalier Heliport","scheduled_service":"no","other_name":null,"latitude_dege":"45.6341667175293","gps_code":null,"is_available":false},{"longitude_deg":"0.5555559992790222","iata_code":null,"country_id":302687,"elevation_ft":"275","local_code":null,"continent":"EU","home_link":null,"ident":"FR-0181","iso_country":"FR","wikipedia_link":null,"id":43521,"iso_region":"FR-NAQ","keywords":null,"typeA":"heliport","municipality":"Chatellerault","code":null,"name":"Centre Hospitalier Heliport","scheduled_service":"no","other_name":null,"latitude_dege":"46.83416748046875","gps_code":null,"is_available":false},{"longitude_deg":"5.216667","iata_code":null,"country_id":302687,"elevation_ft":null,"local_code":null,"continent":"EU","home_link":null,"ident":"FR-0182","iso_country":"FR","wikipedia_link":null,"id":43522,"iso_region":"FR-PAC","keywords":null,"typeA":"seaplane_base","municipality":"Marseille","code":null,"name":"Berre/Marignane Seaplane Base","scheduled_service":"no","other_name":null,"latitude_dege":"43.450001","gps_code":null,"is_available":false},{"longitude_deg":"0.3257194","iata_code":null,"country_id":302687,"elevation_ft":null,"local_code":null,"continent":"EU","home_link":null,"ident":"FR-0183","iso_country":"FR","wikipedia_link":null,"id":331649,"iso_region":"FR-PDL","keywords":null,"typeA":"small_airport","municipality":null,"code":null,"name":"Aérodrome de Monhoudou","scheduled_service":"no","other_name":null,"latitude_dege":"48.2758993","gps_code":null,"is_available":false},{"longitude_deg":"5.048056125640869","iata_code":null,"country_id":302687,"elevation_ft":"136","local_code":null,"continent":"EU","home_link":null,"ident":"FR-0184","iso_country":"FR","wikipedia_link":null,"id":43524,"iso_region":"FR-PAC","keywords":null,"typeA":"heliport","municipality":"Martigues","code":null,"name":"Centre De Secours Heliport","scheduled_service":"no","other_name":null,"latitude_dege":"43.42250061035156","gps_code":null,"is_available":false},{"longitude_deg":"5.0258331298828125","iata_code":null,"country_id":302687,"elevation_ft":"285","local_code":null,"continent":"EU","home_link":null,"ident":"FR-0185","iso_country":"FR","wikipedia_link":null,"id":43525,"iso_region":"FR-PAC","keywords":null,"typeA":"heliport","municipality":"Carpentras","code":null,"name":"Centre De Secours Heliport","scheduled_service":"no","other_name":null,"latitude_dege":"44.04666519165039","gps_code":null,"is_available":false},{"longitude_deg":"4.79888916015625","iata_code":null,"country_id":302687,"elevation_ft":"69","local_code":null,"continent":"EU","home_link":null,"ident":"FR-0186","iso_country":"FR","wikipedia_link":null,"id":43526,"iso_region":"FR-PAC","keywords":null,"typeA":"heliport","municipality":"Avignon","code":null,"name":"Centre Hospitalier Heliport","scheduled_service":"no","other_name":null,"latitude_dege":"43.9202766418457","gps_code":null,"is_available":false},{"longitude_deg":"5.442222","iata_code":null,"country_id":302687,"elevation_ft":"728","local_code":null,"continent":"EU","home_link":null,"ident":"FR-0187","iso_country":"FR","wikipedia_link":null,"id":43527,"iso_region":"FR-PAC","keywords":"Heliport Centre Hospitalier du Pays d'Aix","typeA":"heliport","municipality":"Aix-en-Provence","code":null,"name":"Pays d'Aix Medical Center Heliport","scheduled_service":"no","other_name":null,"latitude_dege":"43.534721","gps_code":null,"is_available":false},{"longitude_deg":"6.632778167724609","iata_code":null,"country_id":302687,"elevation_ft":"4372","local_code":null,"continent":"EU","home_link":null,"ident":"FR-0188","iso_country":"FR","wikipedia_link":null,"id":43528,"iso_region":"FR-PAC","keywords":null,"typeA":"heliport","municipality":"Briancon","code":null,"name":"Centre Hospitalier Heliport","scheduled_service":"no","other_name":null,"latitude_dege":"44.90638732910156","gps_code":null,"is_available":false},{"longitude_deg":"6.751667022705078","iata_code":null,"country_id":302687,"elevation_ft":"69","local_code":null,"continent":"EU","home_link":null,"ident":"FR-0189","iso_country":"FR","wikipedia_link":null,"id":43529,"iso_region":"FR-PAC","keywords":null,"typeA":"heliport","municipality":"Frejus","code":null,"name":"Hôpital Bonnet Heliport","scheduled_service":"no","other_name":null,"latitude_dege":"43.439720153808594","gps_code":null,"is_available":false},{"longitude_deg":"6.92888879776001","iata_code":null,"country_id":302687,"elevation_ft":"552","local_code":null,"continent":"EU","home_link":null,"ident":"FR-0190","iso_country":"FR","wikipedia_link":null,"id":43530,"iso_region":"FR-PAC","keywords":null,"typeA":"heliport","municipality":"Grasse","code":null,"name":"Hôpital Clavary Heliport","scheduled_service":"no","other_name":null,"latitude_dege":"43.619720458984375","gps_code":null,"is_available":false},{"longitude_deg":"6.111944198608398","iata_code":null,"country_id":302687,"elevation_ft":"88","local_code":null,"continent":"EU","home_link":null,"ident":"FR-0191","iso_country":"FR","wikipedia_link":null,"id":43531,"iso_region":"FR-PAC","keywords":null,"typeA":"heliport","municipality":"Hyeres","code":null,"name":"Hôpital Heliport","scheduled_service":"no","other_name":null,"latitude_dege":"43.11861038208008","gps_code":null,"is_available":false},{"longitude_deg":"6.073332786560059","iata_code":null,"country_id":302687,"elevation_ft":"2490","local_code":null,"continent":"EU","home_link":null,"ident":"FR-0192","iso_country":"FR","wikipedia_link":null,"id":43532,"iso_region":"FR-PAC","keywords":null,"typeA":"heliport","municipality":"Gap","code":null,"name":"Hôpital Heliport","scheduled_service":"no","other_name":null,"latitude_dege":"44.557498931884766","gps_code":null,"is_available":false},{"longitude_deg":"6.066389083862305","iata_code":null,"country_id":302687,"elevation_ft":"753","local_code":null,"continent":"EU","home_link":null,"ident":"FR-0193","iso_country":"FR","wikipedia_link":null,"id":43533,"iso_region":"FR-PAC","keywords":null,"typeA":"heliport","municipality":"Brignoles","code":null,"name":"Hôpital Jean Marcel Heliport","scheduled_service":"no","other_name":null,"latitude_dege":"43.40305709838867","gps_code":null,"is_available":false},{"longitude_deg":"7.226110935211182","iata_code":null,"country_id":302687,"elevation_ft":"608","local_code":null,"continent":"EU","home_link":null,"ident":"FR-0194","iso_country":"FR","wikipedia_link":null,"id":43534,"iso_region":"FR-PAC","keywords":null,"typeA":"heliport","municipality":"Nice","code":null,"name":"Hôpital L'Archet 2 Heliport","scheduled_service":"no","other_name":null,"latitude_dege":"43.6974983215332","gps_code":null,"is_available":false},{"longitude_deg":"5.403889179229736","iata_code":null,"country_id":302687,"elevation_ft":"138","local_code":null,"continent":"EU","home_link":null,"ident":"FR-0195","iso_country":"FR","wikipedia_link":null,"id":43535,"iso_region":"FR-PAC","keywords":null,"typeA":"heliport","municipality":"Marseille","code":null,"name":"Hôpital La Timone Heliport","scheduled_service":"no","other_name":null,"latitude_dege":"43.28944396972656","gps_code":null,"is_available":false},{"longitude_deg":"7.241666793823242","iata_code":null,"country_id":302687,"elevation_ft":"115","local_code":null,"continent":"EU","home_link":null,"ident":"FR-0196","iso_country":"FR","wikipedia_link":null,"id":43536,"iso_region":"FR-PAC","keywords":null,"typeA":"heliport","municipality":"Nice","code":null,"name":"Hôpital Lenval Heliport","scheduled_service":"no","other_name":null,"latitude_dege":"43.68944549560547","gps_code":null,"is_available":false},{"longitude_deg":"5.8980560302734375","iata_code":null,"country_id":302687,"elevation_ft":"3","local_code":null,"continent":"EU","home_link":null,"ident":"FR-0197","iso_country":"FR","wikipedia_link":null,"id":43537,"iso_region":"FR-PAC","keywords":null,"typeA":"heliport","municipality":"Toulon","code":null,"name":"Milhaud Heliport","scheduled_service":"no","other_name":null,"latitude_dege":"43.11333465576172","gps_code":null,"is_available":false},{"longitude_deg":"5.364999771118164","iata_code":null,"country_id":302687,"elevation_ft":"613","local_code":null,"continent":"EU","home_link":null,"ident":"FR-0198","iso_country":"FR","wikipedia_link":null,"id":43538,"iso_region":"FR-PAC","keywords":null,"typeA":"heliport","municipality":"Marseille-Hôpital","code":null,"name":"Nord Heliport","scheduled_service":"no","other_name":null,"latitude_dege":"43.38055419921875","gps_code":null,"is_available":false},{"longitude_deg":"7.1322221755981445","iata_code":null,"country_id":302687,"elevation_ft":"22","local_code":null,"continent":"EU","home_link":null,"ident":"FR-0199","iso_country":"FR","wikipedia_link":null,"id":43539,"iso_region":"FR-PAC","keywords":null,"typeA":"heliport","municipality":"Antibes","code":null,"name":"Port Vauban Heliport","scheduled_service":"no","other_name":null,"latitude_dege":"43.58805465698242","gps_code":null,"is_available":false},{"longitude_deg":"7.01713","iata_code":null,"country_id":302687,"elevation_ft":"10","local_code":null,"continent":"EU","home_link":null,"ident":"FR-0200","iso_country":"FR","wikipedia_link":null,"id":43540,"iso_region":"FR-PAC","keywords":null,"typeA":"heliport","municipality":"Cannes","code":null,"name":"Quai Du Large Heliport","scheduled_service":"no","other_name":null,"latitude_dege":"43.545112","gps_code":"LFTL","is_available":false},{"longitude_deg":"6.551943778991699","iata_code":null,"country_id":302687,"elevation_ft":"21","local_code":null,"continent":"EU","home_link":null,"ident":"FR-0201","iso_country":"FR","wikipedia_link":null,"id":43541,"iso_region":"FR-PAC","keywords":null,"typeA":"heliport","municipality":"Grimaud","code":null,"name":"Sarl R.C.E Heliport","scheduled_service":"no","other_name":null,"latitude_dege":"43.26777648925781","gps_code":null,"is_available":false},{"longitude_deg":"4.951943874359131","iata_code":null,"country_id":302687,"elevation_ft":"72","local_code":null,"continent":"EU","home_link":null,"ident":"FR-0202","iso_country":"FR","wikipedia_link":null,"id":43542,"iso_region":"FR-PAC","keywords":null,"typeA":"heliport","municipality":"Istres","code":null,"name":"Societe Europeenne de Propulsion Heliport","scheduled_service":"no","other_name":null,"latitude_dege":"43.543888092041016","gps_code":null,"is_available":false},{"longitude_deg":"7.0283331871032715","iata_code":null,"country_id":302687,"elevation_ft":"772","local_code":null,"continent":"EU","home_link":null,"ident":"FR-0203","iso_country":"FR","wikipedia_link":null,"id":43543,"iso_region":"FR-PAC","keywords":null,"typeA":"heliport","municipality":"Valbonne","code":null,"name":"Sophia Antépolis Heliport","scheduled_service":"no","other_name":null,"latitude_dege":"43.622779846191406","gps_code":null,"is_available":false},{"longitude_deg":"5.929999828338623","iata_code":null,"country_id":302687,"elevation_ft":"226","local_code":null,"continent":"EU","home_link":null,"ident":"FR-0204","iso_country":"FR","wikipedia_link":null,"id":43544,"iso_region":"FR-PAC","keywords":null,"typeA":"heliport","municipality":"Toulon Sainte Anne","code":null,"name":"Toulon Sainte Anne Heliport","scheduled_service":"no","other_name":null,"latitude_dege":"43.133331298828125","gps_code":null,"is_available":false},{"longitude_deg":"5.603888988494873","iata_code":null,"country_id":302687,"elevation_ft":"379","local_code":null,"continent":"EU","home_link":null,"ident":"FR-0205","iso_country":"FR","wikipedia_link":null,"id":43545,"iso_region":"FR-PAC","keywords":null,"typeA":"heliport","municipality":"Aubagne","code":null,"name":"Zi Les Paluds Heliport","scheduled_service":"no","other_name":null,"latitude_dege":"43.28666687011719","gps_code":null,"is_available":false},{"longitude_deg":"6.633056163787842","iata_code":null,"country_id":302687,"elevation_ft":"5799","local_code":null,"continent":"EU","home_link":null,"ident":"FR-0206","iso_country":"FR","wikipedia_link":null,"id":43546,"iso_region":"FR-ARA","keywords":null,"typeA":"heliport","municipality":"Courchevel","code":null,"name":"Centre de Secours de Courchevel Heliport","scheduled_service":"no","other_name":null,"latitude_dege":"45.415000915527344","gps_code":null,"is_available":false},{"longitude_deg":"4.904167175292969","iata_code":null,"country_id":302687,"elevation_ft":"486","local_code":null,"continent":"EU","home_link":null,"ident":"FR-0207","iso_country":"FR","wikipedia_link":null,"id":43547,"iso_region":"FR-ARA","keywords":null,"typeA":"heliport","municipality":"Valence","code":null,"name":"Centre Hospitalier Heliport","scheduled_service":"no","other_name":null,"latitude_dege":"44.91444396972656","gps_code":null,"is_available":false},{"longitude_deg":"5.021944046020508","iata_code":null,"country_id":302687,"elevation_ft":"526","local_code":null,"continent":"EU","home_link":null,"ident":"FR-0208","iso_country":"FR","wikipedia_link":null,"id":43548,"iso_region":"FR-ARA","keywords":null,"typeA":"heliport","municipality":"Romans","code":null,"name":"Centre Hospitalier Heliport","scheduled_service":"no","other_name":null,"latitude_dege":"45.04194259643555","gps_code":null,"is_available":false},